stop_id,stop_code,stop_name,stop_desc,stop_lat,stop_lon,stop_url,zone_id,location_type,parent_station,stop_timezone
"S1",,"甲府駅北口","",35.667949,138.569514,,"http://yamanashikotsu.co.jp/jikoku/309.htm",1,,"Asia/Tokyo"
"S61",,"石和温泉駅入口","",35.650192,138.636987,,"",1,,"Asia/Tokyo"
"S286",,"竜王駅","",35.668443,138.519884,,"http://yamanashikotsu.co.jp/jikoku/988.htm",1,,"Asia/Tokyo"
"S448",,"鰍沢口駅","",35.540976,138.470478,,"http://yamanashikotsu.co.jp/jikoku/180.htm",1,,"Asia/Tokyo"
"S692",,"韮崎駅","",35.710969,138.450509,,"http://yamanashikotsu.co.jp/jikoku/town/705.htm",1,,"Asia/Tokyo"
"S972",,"富士山駅","",35.483849,138.795253,,"",1,,"Asia/Tokyo"
"S984",,"河口湖駅","",35.498427,138.768603,,"",1,,"Asia/Tokyo"
"S1711",,"身延駅","",35.361624,138.452733,,"http://yamanashikotsu.co.jp/jikoku/town/887.htm",1,,"Asia/Tokyo"
"S2235",,"上野原駅","",35.619057,139.116048,,"",1,,"Asia/Tokyo"
"S2250",,"猿橋駅","",35.612769,138.967593,,"",1,,"Asia/Tokyo"
"S2466",,"大月駅","",35.613078,138.942976,,"",1,,"Asia/Tokyo"
"S2568",,"都留市駅","",35.556746,138.907831,,"",1,,"Asia/Tokyo"
"S2615",,"富士駅","",35.150911,138.651393,,"",1,,"Asia/Tokyo"
"S2805",,"静岡駅北口","",34.972551,138.388891,,"",1,,"Asia/Tokyo"
"S2846",,"富士川駅","",35.141450,138.618332,,"http://yamanashikotsu.co.jp/jikoku/town/783.htm",1,,"Asia/Tokyo"
"S3292",,"石和温泉駅","",35.657246,138.635431,,"http://www.city.fuefuki.yamanashi.jp/file/4/4bbc358f8bdd8.html",1,,"Asia/Tokyo"
"P266",,"伊勢町営業所","",35.640926,138.570605,,http://yamanashikotsu.co.jp/jikoku/80.htm,0,,"Asia/Tokyo"
"P258",,"甲南住宅","",35.642759,138.569878,,http://yamanashikotsu.co.jp/jikoku/306.htm,0,,"Asia/Tokyo"
"P261",,"伊勢小学校","",35.645036,138.569728,,http://yamanashikotsu.co.jp/jikoku/78.htm,0,,"Asia/Tokyo"
"P263",,"伊勢二丁目","",35.646554,138.569653,,http://yamanashikotsu.co.jp/jikoku/81.htm,0,,"Asia/Tokyo"
"P265",,"遠光寺","",35.647589,138.569594,,http://yamanashikotsu.co.jp/jikoku/174.htm,0,,"Asia/Tokyo"
"P296",,"遊亀公園","",35.651423,138.570318,,http://yamanashikotsu.co.jp/jikoku/964.htm,0,,"Asia/Tokyo"
"P295",,"太田町見付","",35.652977,138.570455,,http://yamanashikotsu.co.jp/jikoku/149.htm,0,,"Asia/Tokyo"
"P299",,"若松町","",35.655745,138.571117,,http://yamanashikotsu.co.jp/jikoku/998.htm,0,,"Asia/Tokyo"
"P302",,"法人会館","",35.656998,138.571455,,http://yamanashikotsu.co.jp/jikoku/811.htm,0,,"Asia/Tokyo"
"P311",,"中央四丁目","",35.659981,138.572179,,http://yamanashikotsu.co.jp/jikoku/572.htm,0,,"Asia/Tokyo"
"P138",,"県庁前","",35.663224,138.568564,,http://yamanashikotsu.co.jp/jikoku/278.htm,0,,"Asia/Tokyo"
"P127",,"県会議事堂","",35.664736,138.567807,,http://yamanashikotsu.co.jp/jikoku/277.htm,0,,"Asia/Tokyo"
"P119",,"甲府駅バスターミナル(4番)","",35.666654,138.568679,,http://yamanashikotsu.co.jp/jikoku/310.htm,0,,"Asia/Tokyo"
"P397",,"丸の内二丁目北","",35.667277,138.565230,,http://yamanashikotsu.co.jp/jikoku/852.htm,0,,"Asia/Tokyo"
"P52",,"甲府駅北入口","",35.669850,138.565761,,http://yamanashikotsu.co.jp/jikoku/308.htm,0,,"Asia/Tokyo"
"P53",,"朝日五丁目南","",35.671931,138.566643,,http://yamanashikotsu.co.jp/jikoku/32.htm,0,,"Asia/Tokyo"
"P56",,"朝日五丁目","",35.673749,138.565806,,http://yamanashikotsu.co.jp/jikoku/31.htm,0,,"Asia/Tokyo"
"P148",,"一高前","",35.674579,138.563460,,http://yamanashikotsu.co.jp/jikoku/83.htm,0,,"Asia/Tokyo"
"P150",,"塩部","",35.676494,138.559321,,http://yamanashikotsu.co.jp/jikoku/397.htm,0,,"Asia/Tokyo"
"P152",,"北中入口","",35.677156,138.557186,,http://yamanashikotsu.co.jp/jikoku/241.htm,0,,"Asia/Tokyo"
"P154",,"県営アパート入口","",35.677917,138.554581,,http://yamanashikotsu.co.jp/jikoku/275.htm,0,,"Asia/Tokyo"
"P156",,"饅頭森入口","",35.678631,138.552269,,http://yamanashikotsu.co.jp/jikoku/859.htm,0,,"Asia/Tokyo"
"P160",,"湯村温泉入口","",35.680708,138.548689,,http://yamanashikotsu.co.jp/jikoku/977.htm,0,,"Asia/Tokyo"
"P364",,"湯村","",35.683139,138.548375,,http://yamanashikotsu.co.jp/jikoku/973.htm,0,,"Asia/Tokyo"
"P365",,"湯村団地入口","",35.686618,138.546554,,http://yamanashikotsu.co.jp/jikoku/977.htm,0,,"Asia/Tokyo"
"P367",,"湯村団地","",35.689152,138.545786,,http://yamanashikotsu.co.jp/jikoku/976.htm,0,,"Asia/Tokyo"
"P368",,"きぼうの家","",35.691566,138.546028,,http://yamanashikotsu.co.jp/jikoku/249.htm,0,,"Asia/Tokyo"
"P369",,"羽黒町","",35.692942,138.544172,,http://yamanashikotsu.co.jp/jikoku/727.htm,0,,"Asia/Tokyo"
"P370",,"千代田湖入口","",35.692622,138.540132,,http://yamanashikotsu.co.jp/jikoku/581.htm,0,,"Asia/Tokyo"
"P371",,"山宮北","",35.693465,138.537037,,http://yamanashikotsu.co.jp/jikoku/335.htm,0,,"Asia/Tokyo"
"P372",,"山宮公民館","",35.692927,138.532534,,http://yamanashikotsu.co.jp/jikoku/961.htm,0,,"Asia/Tokyo"
"P734",,"山宮上町","",35.690714,138.532893,,http://yamanashikotsu.co.jp/jikoku/960.htm,0,,"Asia/Tokyo"
"P733",,"山宮下町","",35.689280,138.533470,,http://yamanashikotsu.co.jp/jikoku/962.htm,0,,"Asia/Tokyo"
"P732",,"千塚上町","",35.686174,138.536546,,http://yamanashikotsu.co.jp/jikoku/558.htm,0,,"Asia/Tokyo"
"P730",,"千塚北","",35.683431,138.538679,,http://yamanashikotsu.co.jp/jikoku/1028.htm,0,,"Asia/Tokyo"
"P167",,"千塚","",35.681368,138.539988,,http://yamanashikotsu.co.jp/jikoku/559.htm,0,,"Asia/Tokyo"
"P165",,"千塚仲町","",35.681444,138.542613,,http://yamanashikotsu.co.jp/jikoku/561.htm,0,,"Asia/Tokyo"
"P163",,"湯村ショッピングセンター","",35.681178,138.544236,,http://yamanashikotsu.co.jp/jikoku/975.htm,0,,"Asia/Tokyo"
"P158",,"湯村温泉入口","",35.679673,138.549389,,http://yamanashikotsu.co.jp/jikoku/977.htm,0,,"Asia/Tokyo"
"P157",,"饅頭森入口","",35.678958,138.551644,,http://yamanashikotsu.co.jp/jikoku/859.htm,0,,"Asia/Tokyo"
"P155",,"県営アパート入口","",35.678150,138.554179,,http://yamanashikotsu.co.jp/jikoku/275.htm,0,,"Asia/Tokyo"
"P153",,"北中入口","",35.677492,138.556419,,http://yamanashikotsu.co.jp/jikoku/241.htm,0,,"Asia/Tokyo"
"P151",,"塩部","",35.676705,138.559023,,http://yamanashikotsu.co.jp/jikoku/397.htm,0,,"Asia/Tokyo"
"P149",,"一高前","",35.674964,138.562776,,http://yamanashikotsu.co.jp/jikoku/83.htm,0,,"Asia/Tokyo"
"P143",,"横沢通り北","",35.672807,138.564827,,http://yamanashikotsu.co.jp/jikoku/992.htm,0,,"Asia/Tokyo"
"P142",,"山梨病院","",35.671101,138.564066,,http://yamanashikotsu.co.jp/jikoku/958.htm,0,,"Asia/Tokyo"
"P344",,"朝日二丁目","",35.669602,138.564857,,http://yamanashikotsu.co.jp/jikoku/2504.htm,0,,"Asia/Tokyo"
"P398",,"丸の内二丁目北","",35.667284,138.565377,,http://yamanashikotsu.co.jp/jikoku/852.htm,0,,"Asia/Tokyo"
"P124",,"甲府駅バスターミナル(3番)","",35.666789,138.568424,,http://yamanashikotsu.co.jp/jikoku/310.htm,0,,"Asia/Tokyo"
"P128",,"県会議事堂","",35.664717,138.568145,,http://yamanashikotsu.co.jp/jikoku/277.htm,0,,"Asia/Tokyo"
"P129",,"甲府市役所","",35.662038,138.567759,,http://yamanashikotsu.co.jp/jikoku/316.htm,0,,"Asia/Tokyo"
"P139",,"常盤通り","",35.661230,138.570752,,http://yamanashikotsu.co.jp/jikoku/611.htm,0,,"Asia/Tokyo"
"P312",,"中央四丁目北","",35.660103,138.572305,,http://yamanashikotsu.co.jp/jikoku/573.htm,0,,"Asia/Tokyo"
"P310",,"中央四丁目南","",35.658854,138.572032,,http://yamanashikotsu.co.jp/jikoku/574.htm,0,,"Asia/Tokyo"
"P300",,"法人会館","",35.656246,138.571343,,http://yamanashikotsu.co.jp/jikoku/811.htm,0,,"Asia/Tokyo"
"P298",,"若松町","",35.654831,138.570951,,http://yamanashikotsu.co.jp/jikoku/998.htm,0,,"Asia/Tokyo"
"P294",,"太田町見付","",35.653410,138.570610,,http://yamanashikotsu.co.jp/jikoku/149.htm,0,,"Asia/Tokyo"
"P297",,"遊亀公園","",35.650656,138.570388,,http://yamanashikotsu.co.jp/jikoku/964.htm,0,,"Asia/Tokyo"
"P264",,"遠光寺","",35.647273,138.569672,,http://yamanashikotsu.co.jp/jikoku/174.htm,0,,"Asia/Tokyo"
"P262",,"伊勢二丁目","",35.646061,138.569736,,http://yamanashikotsu.co.jp/jikoku/81.htm,0,,"Asia/Tokyo"
"P260",,"伊勢小学校","",35.644267,138.569830,,http://yamanashikotsu.co.jp/jikoku/78.htm,0,,"Asia/Tokyo"
"P259",,"甲南住宅","",35.643240,138.569905,,http://yamanashikotsu.co.jp/jikoku/306.htm,0,,"Asia/Tokyo"
"P267",,"伊勢町営業所","",35.640762,138.570884,,http://yamanashikotsu.co.jp/jikoku/80.htm,0,,"Asia/Tokyo"
"P159",,"湯村温泉入口","",35.679987,138.548074,,http://yamanashikotsu.co.jp/jikoku/977.htm,0,,"Asia/Tokyo"
"P162",,"湯村ショッピングセンター","",35.681008,138.544472,,http://yamanashikotsu.co.jp/jikoku/975.htm,0,,"Asia/Tokyo"
"P164",,"千塚仲町","",35.681287,138.543083,,http://yamanashikotsu.co.jp/jikoku/561.htm,0,,"Asia/Tokyo"
"P168",,"千塚","",35.682052,138.538966,,http://yamanashikotsu.co.jp/jikoku/559.htm,0,,"Asia/Tokyo"
"P731",,"千塚北","",35.684102,138.538448,,http://yamanashikotsu.co.jp/jikoku/1028.htm,0,,"Asia/Tokyo"
"P161",,"湯川橋","",35.680875,138.548715,,http://yamanashikotsu.co.jp/jikoku/966.htm,0,,"Asia/Tokyo"
"P186",,"敷島営業所","",35.688185,138.521244,,http://yamanashikotsu.co.jp/jikoku/399.htm,0,,"Asia/Tokyo"
"P181",,"敷島中学校西口","",35.687021,138.523360,,http://yamanashikotsu.co.jp/jikoku/405.htm,0,,"Asia/Tokyo"
"P182",,"事業団住宅入口","",35.684843,138.522918,,http://yamanashikotsu.co.jp/jikoku/408.htm,0,,"Asia/Tokyo"
"P177",,"敷島西町","",35.683797,138.526059,,http://yamanashikotsu.co.jp/jikoku/407.htm,0,,"Asia/Tokyo"
"P433",,"中下条新町","",35.679211,138.525101,,http://yamanashikotsu.co.jp/jikoku/649.htm,0,,"Asia/Tokyo"
"P440",,"大下条","",35.675566,138.523787,,http://yamanashikotsu.co.jp/jikoku/144.htm,0,,"Asia/Tokyo"
"P449",,"大下条南","",35.672461,138.524023,,http://yamanashikotsu.co.jp/jikoku/145.htm,0,,"Asia/Tokyo"
"P452",,"竜王駅","",35.668441,138.519852,,http://yamanashikotsu.co.jp/jikoku/988.htm,0,"S286","Asia/Tokyo"
"P484",,"竜王郵便局","",35.665630,138.520533,,http://yamanashikotsu.co.jp/jikoku/990.htm,0,,"Asia/Tokyo"
"P482",,"名取","",35.663873,138.526480,,http://yamanashikotsu.co.jp/jikoku/669.htm,0,,"Asia/Tokyo"
"P481",,"貢川団地入口","",35.662646,138.531587,,http://yamanashikotsu.co.jp/jikoku/260.htm,0,,"Asia/Tokyo"
"P474",,"山梨県立美術館","",35.661263,138.539017,,http://yamanashikotsu.co.jp/jikoku/953.htm,0,,"Asia/Tokyo"
"P476",,"貢川一丁目","",35.660491,138.542233,,http://yamanashikotsu.co.jp/jikoku/954.htm,0,,"Asia/Tokyo"
"P471",,"貢川","",35.658621,138.547602,,http://yamanashikotsu.co.jp/jikoku/257.htm,0,,"Asia/Tokyo"
"P469",,"貢川交番前","",35.658299,138.550767,,http://yamanashikotsu.co.jp/jikoku/258.htm,0,,"Asia/Tokyo"
"P467",,"上石田町","",35.658480,138.553551,,http://yamanashikotsu.co.jp/jikoku/200.htm,0,,"Asia/Tokyo"
"P465",,"荒川橋","",35.659149,138.556770,,http://yamanashikotsu.co.jp/jikoku/55.htm,0,,"Asia/Tokyo"
"P464",,"寿町","",35.660206,138.559943,,http://yamanashikotsu.co.jp/jikoku/347.htm,0,,"Asia/Tokyo"
"P462",,"県民文化ホール","",35.659591,138.562558,,http://yamanashikotsu.co.jp/jikoku/280.htm,0,,"Asia/Tokyo"
"P460",,"丸の内郵便局","",35.659118,138.564232,,http://yamanashikotsu.co.jp/jikoku/855.htm,0,,"Asia/Tokyo"
"P133",,"甲府地方裁判所","",35.659140,138.566785,,http://yamanashikotsu.co.jp/jikoku/323.htm,0,,"Asia/Tokyo"
"P130",,"丸の内三丁目","",35.661191,138.567225,,http://yamanashikotsu.co.jp/jikoku/851.htm,0,,"Asia/Tokyo"
"P736",,"北西中学校","",35.692539,138.530857,,http://yamanashikotsu.co.jp/jikoku/817.htm,0,,"Asia/Tokyo"
"P374",,"山宮福祉センター","",35.696545,138.527330,,http://yamanashikotsu.co.jp/jikoku/963.htm,0,,"Asia/Tokyo"
"P375",,"片山","",35.698885,138.524718,,http://yamanashikotsu.co.jp/jikoku/187.htm,0,,"Asia/Tokyo"
"P376",,"成田山身代わり不動尊","",35.702882,138.525104,,http://yamanashikotsu.co.jp/jikoku/676.htm,0,,"Asia/Tokyo"
"P377",,"上野入口","",35.709117,138.532526,,http://yamanashikotsu.co.jp/jikoku/101.htm,0,,"Asia/Tokyo"
"P378",,"桜橋","",35.713660,138.536101,,http://yamanashikotsu.co.jp/jikoku/378.htm,0,,"Asia/Tokyo"
"P379",,"吉沢農協","",35.715396,138.541017,,http://yamanashikotsu.co.jp/jikoku/1013.htm,0,,"Asia/Tokyo"
"P380",,"寺平","",35.721524,138.546165,,http://yamanashikotsu.co.jp/jikoku/595.htm,0,,"Asia/Tokyo"
"P381",,"昇仙峡口","",35.724531,138.547983,,http://yamanashikotsu.co.jp/jikoku/463.htm,0,,"Asia/Tokyo"
"P373",,"山宮福祉センター","",35.696791,138.527207,,http://yamanashikotsu.co.jp/jikoku/963.htm,0,,"Asia/Tokyo"
"P735",,"北西中学校","",35.692091,138.531426,,http://yamanashikotsu.co.jp/jikoku/817.htm,0,,"Asia/Tokyo"
"P122",,"甲府駅バスターミナル(1番)","",35.666508,138.568196,,http://yamanashikotsu.co.jp/jikoku/310.htm,0,,"Asia/Tokyo"
"P132",,"甲府地方裁判所","",35.659883,138.567298,,http://yamanashikotsu.co.jp/jikoku/323.htm,0,,"Asia/Tokyo"
"P459",,"丸の内郵便局","",35.658946,138.564425,,http://yamanashikotsu.co.jp/jikoku/855.htm,0,,"Asia/Tokyo"
"P461",,"県民文化ホール","",35.659295,138.563186,,http://yamanashikotsu.co.jp/jikoku/280.htm,0,,"Asia/Tokyo"
"P463",,"寿町","",35.659903,138.560686,,http://yamanashikotsu.co.jp/jikoku/347.htm,0,,"Asia/Tokyo"
"P466",,"荒川橋","",35.658987,138.556867,,http://yamanashikotsu.co.jp/jikoku/55.htm,0,,"Asia/Tokyo"
"P468",,"上石田町","",35.658458,138.553404,,http://yamanashikotsu.co.jp/jikoku/200.htm,0,,"Asia/Tokyo"
"P470",,"貢川交番前","",35.658301,138.550518,,http://yamanashikotsu.co.jp/jikoku/258.htm,0,,"Asia/Tokyo"
"P1154",,"貢川","",35.659240,138.545725,,http://yamanashikotsu.co.jp/jikoku/257.htm,0,,"Asia/Tokyo"
"P475",,"貢川一丁目","",35.660866,138.540486,,http://yamanashikotsu.co.jp/jikoku/954.htm,0,,"Asia/Tokyo"
"P473",,"山梨県立美術館","",35.661631,138.537649,,http://yamanashikotsu.co.jp/jikoku/953.htm,0,,"Asia/Tokyo"
"P478",,"貢川団地入口","",35.662326,138.533215,,http://yamanashikotsu.co.jp/jikoku/260.htm,0,,"Asia/Tokyo"
"P483",,"名取","",35.663923,138.526139,,http://yamanashikotsu.co.jp/jikoku/669.htm,0,,"Asia/Tokyo"
"P485",,"竜王郵便局","",35.665632,138.520327,,http://yamanashikotsu.co.jp/jikoku/990.htm,0,,"Asia/Tokyo"
"P451",,"竜王駅","",35.668445,138.519917,,http://yamanashikotsu.co.jp/jikoku/988.htm,0,"S286","Asia/Tokyo"
"P450",,"大下条南","",35.672119,138.523934,,http://yamanashikotsu.co.jp/jikoku/145.htm,0,,"Asia/Tokyo"
"P439",,"大下条","",35.676239,138.523983,,http://yamanashikotsu.co.jp/jikoku/144.htm,0,,"Asia/Tokyo"
"P434",,"中下条新町","",35.678827,138.524924,,http://yamanashikotsu.co.jp/jikoku/649.htm,0,,"Asia/Tokyo"
"P176",,"敷島西町","",35.683767,138.525646,,http://yamanashikotsu.co.jp/jikoku/407.htm,0,,"Asia/Tokyo"
"P385",,"天神森","",35.725572,138.549673,,http://yamanashikotsu.co.jp/jikoku/598.htm,0,,"Asia/Tokyo"
"P386",,"平瀬入口","",35.722325,138.552221,,http://yamanashikotsu.co.jp/jikoku/775.htm,0,,"Asia/Tokyo"
"P387",,"千代田小学校","",35.714664,138.553361,,http://yamanashikotsu.co.jp/jikoku/582.htm,0,,"Asia/Tokyo"
"P388",,"グリーンライン昇仙峡","",35.738505,138.565278,,http://yamanashikotsu.co.jp/jikoku/270.htm,0,,"Asia/Tokyo"
"P389",,"昇仙峡滝上","",35.751018,138.566136,,http://yamanashikotsu.co.jp/jikoku/464.htm,0,,"Asia/Tokyo"
"P472",,"貢川","",35.658530,138.547871,,http://yamanashikotsu.co.jp/jikoku/257.htm,0,,"Asia/Tokyo"
"P166",,"千塚","",35.681257,138.539843,,http://yamanashikotsu.co.jp/jikoku/559.htm,0,,"Asia/Tokyo"
"P169",,"千塚西","",35.681300,138.537284,,http://yamanashikotsu.co.jp/jikoku/562.htm,0,,"Asia/Tokyo"
"P171",,"千松橋","",35.682065,138.534543,,http://yamanashikotsu.co.jp/jikoku/1014.htm,0,,"Asia/Tokyo"
"P173",,"敷島小学校","",35.682836,138.531614,,http://yamanashikotsu.co.jp/jikoku/3001.htm,0,,"Asia/Tokyo"
"P432",,"敷島仲町","",35.683361,138.527759,,http://yamanashikotsu.co.jp/jikoku/406.htm,0,,"Asia/Tokyo"
"P175",,"敷島仲町","",35.683374,138.528462,,http://yamanashikotsu.co.jp/jikoku/406.htm,0,,"Asia/Tokyo"
"P174",,"敷島小学校","",35.683139,138.530605,,http://yamanashikotsu.co.jp/jikoku/3001.htm,0,,"Asia/Tokyo"
"P172",,"千松橋","",35.682218,138.534454,,http://yamanashikotsu.co.jp/jikoku/1014.htm,0,,"Asia/Tokyo"
"P170",,"千塚西","",35.681505,138.536922,,http://yamanashikotsu.co.jp/jikoku/562.htm,0,,"Asia/Tokyo"
"P1113",,"金の宮住宅入口","",35.684584,138.521327,,http://yamanashikotsu.co.jp/jikoku/town/197.htm,0,,"Asia/Tokyo"
"P180",,"敷島","",35.684984,138.518436,,http://yamanashikotsu.co.jp/jikoku/398.htm,0,,"Asia/Tokyo"
"P187",,"滝坂上","",35.685723,138.510998,,http://yamanashikotsu.co.jp/jikoku/town/533.htm,0,,"Asia/Tokyo"
"P188",,"登美仲宿","",35.687167,138.506074,,http://yamanashikotsu.co.jp/jikoku/town/625.htm,0,,"Asia/Tokyo"
"P1205",,"登美上宿","",35.687997,138.503523,,http://yamanashikotsu.co.jp/jikoku/town/627.htm,0,,"Asia/Tokyo"
"P1206",,"登美","",35.688734,138.499725,,http://yamanashikotsu.co.jp/jikoku/621.htm,0,,"Asia/Tokyo"
"P190",,"下今井","",35.683995,138.494395,,http://yamanashikotsu.co.jp/jikoku/town/423.htm,0,,"Asia/Tokyo"
"P191",,"塩崎駅","",35.686967,138.487116,,http://yamanashikotsu.co.jp/jikoku/town/393.htm,0,,"Asia/Tokyo"
"P193",,"双葉西小学校","",35.689289,138.481928,,http://yamanashikotsu.co.jp/jikoku/town/796.htm,0,,"Asia/Tokyo"
"P194",,"宇津谷","",35.690991,138.477747,,http://yamanashikotsu.co.jp/jikoku/town/109.htm,0,,"Asia/Tokyo"
"P196",,"金剛寺","",35.695548,138.470650,,http://yamanashikotsu.co.jp/jikoku/town/363.htm,0,,"Asia/Tokyo"
"P197",,"韮崎自動車教習所","",35.698634,138.465122,,http://yamanashikotsu.co.jp/jikoku/town/708.htm,0,,"Asia/Tokyo"
"P198",,"韮崎市立病院","",35.702108,138.457794,,http://yamanashikotsu.co.jp/jikoku/town/713.htm,0,,"Asia/Tokyo"
"P200",,"韮崎営業所","",35.702801,138.456362,,http://yamanashikotsu.co.jp/jikoku/town/704.htm,0,,"Asia/Tokyo"
"P201",,"韮崎小学校","",35.705452,138.452344,,http://yamanashikotsu.co.jp/jikoku/town/712.htm,0,,"Asia/Tokyo"
"P203",,"中銀韮崎支店","",35.706271,138.451351,,http://yamanashikotsu.co.jp/jikoku/town/575.htm,0,,"Asia/Tokyo"
"P1033",,"平和観音入口","",35.709368,138.450139,,http://yamanashikotsu.co.jp/jikoku/town/709.htm,0,,"Asia/Tokyo"
"P1035",,"韮崎駅","",35.710969,138.450509,,http://yamanashikotsu.co.jp/jikoku/town/705.htm,0,"S692","Asia/Tokyo"
"P1034",,"平和観音入口","",35.709479,138.450201,,http://yamanashikotsu.co.jp/jikoku/town/709.htm,0,,"Asia/Tokyo"
"P202",,"中銀韮崎支店","",35.706569,138.451153,,http://yamanashikotsu.co.jp/jikoku/town/575.htm,0,,"Asia/Tokyo"
"P1535",,"韮崎小学校","",35.704602,138.453486,,http://yamanashikotsu.co.jp/jikoku/town/712.htm,0,,"Asia/Tokyo"
"P199",,"韮崎市立病院","",35.702028,138.458070,,http://yamanashikotsu.co.jp/jikoku/town/713.htm,0,,"Asia/Tokyo"
"P195",,"宇津谷","",35.690993,138.478079,,http://yamanashikotsu.co.jp/jikoku/town/109.htm,0,,"Asia/Tokyo"
"P192",,"塩崎駅","",35.687257,138.486386,,http://yamanashikotsu.co.jp/jikoku/town/393.htm,0,,"Asia/Tokyo"
"P1204",,"登美","",35.689056,138.500562,,http://yamanashikotsu.co.jp/jikoku/621.htm,0,,"Asia/Tokyo"
"P189",,"登美上宿","",35.688019,138.503501,,http://yamanashikotsu.co.jp/jikoku/town/627.htm,0,,"Asia/Tokyo"
"P179",,"敷島","",35.685095,138.518372,,http://yamanashikotsu.co.jp/jikoku/398.htm,0,,"Asia/Tokyo"
"P178",,"金の宮住宅入口","",35.684668,138.521333,,http://yamanashikotsu.co.jp/jikoku/town/197.htm,0,,"Asia/Tokyo"
"P270",,"住吉一丁目","",35.640453,138.572517,,http://yamanashikotsu.co.jp/jikoku/503.htm,0,,"Asia/Tokyo"
"P271",,"住吉一丁目北","",35.641830,138.572930,,http://yamanashikotsu.co.jp/jikoku/470.htm,0,,"Asia/Tokyo"
"P272",,"南中学校","",35.643522,138.573408,,http://yamanashikotsu.co.jp/jikoku/883.htm,0,,"Asia/Tokyo"
"P273",,"幸町","",35.644871,138.573724,,http://yamanashikotsu.co.jp/jikoku/369.htm,0,,"Asia/Tokyo"
"P275",,"山梨交通自動車学校","",35.645026,138.574725,,http://yamanashikotsu.co.jp/jikoku/955.htm,0,,"Asia/Tokyo"
"P276",,"南甲府駅","",35.643846,138.577104,,http://yamanashikotsu.co.jp/jikoku/880.htm,0,,"Asia/Tokyo"
"P277",,"湯田二丁目","",35.647083,138.577925,,http://yamanashikotsu.co.jp/jikoku/971.htm,0,,"Asia/Tokyo"
"P285",,"北大路通り","",35.648057,138.574703,,http://yamanashikotsu.co.jp/jikoku/239.htm,0,,"Asia/Tokyo"
"P287",,"太田町南部","",35.649132,138.572338,,http://yamanashikotsu.co.jp/jikoku/148.htm,0,,"Asia/Tokyo"
"P137",,"県庁前","",35.663579,138.569130,,http://yamanashikotsu.co.jp/jikoku/278.htm,0,,"Asia/Tokyo"
"P134",,"甲府駅（陸橋）","",35.666427,138.569999,,http://yamanashikotsu.co.jp/jikoku/311.htm,0,,"Asia/Tokyo"
"P4139",,"甲府駅北口(2番)","",35.667944,138.569540,,http://yamanashikotsu.co.jp/jikoku/309.htm,0,"S1","Asia/Tokyo"
"P29",,"郵便貯金山梨センター","",35.669774,138.569709,,http://yamanashikotsu.co.jp/jikoku/326.htm,0,,"Asia/Tokyo"
"P30",,"新紺屋小学校","",35.671387,138.570347,,http://yamanashikotsu.co.jp/jikoku/490.htm,0,,"Asia/Tokyo"
"P32",,"武田一丁目","",35.673176,138.571166,,http://yamanashikotsu.co.jp/jikoku/535.htm,0,,"Asia/Tokyo"
"P35",,"武田三丁目","",35.675062,138.571965,,http://yamanashikotsu.co.jp/jikoku/537.htm,0,,"Asia/Tokyo"
"P37",,"山梨大学","",35.677716,138.573022,,http://yamanashikotsu.co.jp/jikoku/957.htm,0,,"Asia/Tokyo"
"P39",,"梨大北","",35.680002,138.574014,,http://yamanashikotsu.co.jp/jikoku/307.htm,0,,"Asia/Tokyo"
"P41",,"山梨県歯科医師会館","",35.682106,138.575052,,http://yamanashikotsu.co.jp/jikoku/950.htm,0,,"Asia/Tokyo"
"P43",,"護国神社入口","",35.684067,138.576036,,http://yamanashikotsu.co.jp/jikoku/336.htm,0,,"Asia/Tokyo"
"P44",,"武田神社","",35.685699,138.576468,,http://yamanashikotsu.co.jp/jikoku/538.htm,0,,"Asia/Tokyo"
"P45",,"武田神社","",35.685804,138.576519,,http://yamanashikotsu.co.jp/jikoku/538.htm,0,,"Asia/Tokyo"
"P42",,"護国神社入口","",35.683124,138.575669,,http://yamanashikotsu.co.jp/jikoku/336.htm,0,,"Asia/Tokyo"
"P40",,"山梨県歯科医師会館","",35.681185,138.574690,,http://yamanashikotsu.co.jp/jikoku/950.htm,0,,"Asia/Tokyo"
"P38",,"梨大北","",35.679263,138.573802,,http://yamanashikotsu.co.jp/jikoku/307.htm,0,,"Asia/Tokyo"
"P36",,"山梨大学","",35.677017,138.572839,,http://yamanashikotsu.co.jp/jikoku/957.htm,0,,"Asia/Tokyo"
"P34",,"武田三丁目","",35.675679,138.572308,,http://yamanashikotsu.co.jp/jikoku/537.htm,0,,"Asia/Tokyo"
"P33",,"武田一丁目","",35.673341,138.571348,,http://yamanashikotsu.co.jp/jikoku/535.htm,0,,"Asia/Tokyo"
"P31",,"新紺屋小学校","",35.671051,138.570275,,http://yamanashikotsu.co.jp/jikoku/490.htm,0,,"Asia/Tokyo"
"P4140",,"甲府駅北口(3番)","",35.668070,138.569503,,http://yamanashikotsu.co.jp/jikoku/309.htm,0,"S1","Asia/Tokyo"
"P135",,"甲府駅（陸橋）","",35.666473,138.570152,,http://yamanashikotsu.co.jp/jikoku/311.htm,0,,"Asia/Tokyo"
"P136",,"県庁前","",35.664096,138.569508,,http://yamanashikotsu.co.jp/jikoku/278.htm,0,,"Asia/Tokyo"
"P286",,"北大路通り","",35.648079,138.574929,,http://yamanashikotsu.co.jp/jikoku/239.htm,0,,"Asia/Tokyo"
"P278",,"湯田二丁目","",35.647083,138.577992,,http://yamanashikotsu.co.jp/jikoku/971.htm,0,,"Asia/Tokyo"
"P274",,"山梨交通自動車学校","",35.644971,138.574698,,http://yamanashikotsu.co.jp/jikoku/955.htm,0,,"Asia/Tokyo"
"P46",,"塚原入口","",35.689193,138.576994,,http://yamanashikotsu.co.jp/jikoku/589.htm,0,,"Asia/Tokyo"
"P47",,"日影","",35.690435,138.578507,,http://yamanashikotsu.co.jp/jikoku/752.htm,0,,"Asia/Tokyo"
"P48",,"神宮寺","",35.691311,138.581610,,http://yamanashikotsu.co.jp/jikoku/488.htm,0,,"Asia/Tokyo"
"P49",,"積翠寺橋","",35.694302,138.584906,,http://yamanashikotsu.co.jp/jikoku/511.htm,0,,"Asia/Tokyo"
"P50",,"下積翠寺","",35.696667,138.585749,,http://yamanashikotsu.co.jp/jikoku/438.htm,0,,"Asia/Tokyo"
"P51",,"積翠寺","",35.699360,138.589155,,http://yamanashikotsu.co.jp/jikoku/511.htm,0,,"Asia/Tokyo"
"P4138",,"甲府駅北口(1番)","",35.667833,138.569500,,http://yamanashikotsu.co.jp/jikoku/309.htm,0,"S1","Asia/Tokyo"
"P57",,"朝日五丁目","",35.673882,138.566504,,http://yamanashikotsu.co.jp/jikoku/31.htm,0,,"Asia/Tokyo"
"P59",,"美咲二丁目","",35.675574,138.567131,,http://yamanashikotsu.co.jp/jikoku/1011.htm,0,,"Asia/Tokyo"
"P61",,"国立病院","",35.677126,138.566547,,http://yamanashikotsu.co.jp/jikoku/334.htm,0,,"Asia/Tokyo"
"P63",,"山梨県福祉プラザ","",35.678008,138.565468,,http://yamanashikotsu.co.jp/jikoku/952.htm,0,,"Asia/Tokyo"
"P65",,"北新小学校","",35.679353,138.566085,,http://yamanashikotsu.co.jp/jikoku/815.htm,0,,"Asia/Tokyo"
"P67",,"附属小学校","",35.680522,138.567437,,http://yamanashikotsu.co.jp/jikoku/794.htm,0,,"Asia/Tokyo"
"P74",,"北新二丁目","",35.682226,138.567614,,http://yamanashikotsu.co.jp/jikoku/816.htm,0,,"Asia/Tokyo"
"P75",,"和田町","",35.685658,138.565447,,http://yamanashikotsu.co.jp/jikoku/1006.htm,0,,"Asia/Tokyo"
"P76",,"小松町","",35.688283,138.564637,,http://yamanashikotsu.co.jp/jikoku/354.htm,0,,"Asia/Tokyo"
"P77",,"HANAZONOホスピタル","",35.692069,138.562027,,http://yamanashikotsu.co.jp/jikoku/732.htm,0,,"Asia/Tokyo"
"P68",,"附属小学校","",35.680372,138.567335,,http://yamanashikotsu.co.jp/jikoku/794.htm,0,,"Asia/Tokyo"
"P66",,"北新小学校","",35.679076,138.565871,,http://yamanashikotsu.co.jp/jikoku/815.htm,0,,"Asia/Tokyo"
"P64",,"山梨県福祉プラザ","",35.677989,138.565587,,http://yamanashikotsu.co.jp/jikoku/952.htm,0,,"Asia/Tokyo"
"P62",,"国立病院","",35.676943,138.566893,,http://yamanashikotsu.co.jp/jikoku/334.htm,0,,"Asia/Tokyo"
"P60",,"美咲二丁目","",35.675755,138.567268,,http://yamanashikotsu.co.jp/jikoku/1011.htm,0,,"Asia/Tokyo"
"P58",,"朝日五丁目","",35.674479,138.566804,,http://yamanashikotsu.co.jp/jikoku/31.htm,0,,"Asia/Tokyo"
"P55",,"朝日四丁目","",35.673067,138.568344,,http://yamanashikotsu.co.jp/jikoku/36.htm,0,,"Asia/Tokyo"
"P78",,"鳥獣センター","",35.692890,138.559981,,http://yamanashikotsu.co.jp/jikoku/578.htm,0,,"Asia/Tokyo"
"P79",,"和田峠","",35.695670,138.560520,,http://yamanashikotsu.co.jp/jikoku/1005.htm,0,,"Asia/Tokyo"
"P80",,"千代田湖","",35.702895,138.558959,,http://yamanashikotsu.co.jp/jikoku/580.htm,0,,"Asia/Tokyo"
"P81",,"下帯那","",35.706406,138.561193,,http://yamanashikotsu.co.jp/jikoku/429.htm,0,,"Asia/Tokyo"
"P82",,"新井入口","",35.709259,138.565576,,http://yamanashikotsu.co.jp/jikoku/54.htm,0,,"Asia/Tokyo"
"P83",,"仲原","",35.710313,138.568808,,http://yamanashikotsu.co.jp/jikoku/661.htm,0,,"Asia/Tokyo"
"P84",,"上帯那","",35.708213,138.572646,,http://yamanashikotsu.co.jp/jikoku/210.htm,0,,"Asia/Tokyo"
"P69",,"塔岩住宅","",35.683289,138.569277,,http://yamanashikotsu.co.jp/jikoku/600.htm,0,,"Asia/Tokyo"
"P70",,"西田町","",35.686141,138.571286,,http://yamanashikotsu.co.jp/jikoku/692.htm,0,,"Asia/Tokyo"
"P71",,"小松入口","",35.687799,138.570589,,http://yamanashikotsu.co.jp/jikoku/353.htm,0,,"Asia/Tokyo"
"P72",,"塚原橋","",35.689516,138.570522,,http://yamanashikotsu.co.jp/jikoku/590.htm,0,,"Asia/Tokyo"
"P73",,"塚原","",35.691213,138.571222,,http://yamanashikotsu.co.jp/jikoku/588.htm,0,,"Asia/Tokyo"
"P281",,"湯田一丁目","",35.650078,138.578633,,http://yamanashikotsu.co.jp/jikoku/968.htm,0,,"Asia/Tokyo"
"P283",,"青沼三丁目","",35.651713,138.578992,,http://yamanashikotsu.co.jp/jikoku/10.htm,0,,"Asia/Tokyo"
"P288",,"青沼二丁目東","",35.654106,138.579515,,http://yamanashikotsu.co.jp/jikoku/12.htm,0,,"Asia/Tokyo"
"P304",,"青沼二丁目西","",35.655145,138.576589,,http://yamanashikotsu.co.jp/jikoku/11.htm,0,,"Asia/Tokyo"
"P303",,"青沼一丁目","",35.655561,138.573821,,http://yamanashikotsu.co.jp/jikoku/9.htm,0,,"Asia/Tokyo"
"P123",,"甲府駅バスターミナル(5番)","",35.666523,138.568652,,http://yamanashikotsu.co.jp/jikoku/310.htm,0,,"Asia/Tokyo"
"P307",,"法人会館","",35.657187,138.572552,,http://yamanashikotsu.co.jp/jikoku/811.htm,0,,"Asia/Tokyo"
"P306",,"城東二丁目西","",35.656937,138.574132,,http://yamanashikotsu.co.jp/jikoku/468.htm,0,,"Asia/Tokyo"
"P305",,"城東二丁目東","",35.656625,138.576122,,http://yamanashikotsu.co.jp/jikoku/469.htm,0,,"Asia/Tokyo"
"P321",,"ぴゅあ総合入口","",35.655391,138.579896,,http://yamanashikotsu.co.jp/jikoku/519.htm,0,,"Asia/Tokyo"
"P289",,"青沼二丁目東","",35.654204,138.579625,,http://yamanashikotsu.co.jp/jikoku/12.htm,0,,"Asia/Tokyo"
"P282",,"湯田一丁目","",35.650196,138.578721,,http://yamanashikotsu.co.jp/jikoku/968.htm,0,,"Asia/Tokyo"
"P120",,"甲府駅バスターミナル(4番)","",35.666678,138.568647,,http://yamanashikotsu.co.jp/jikoku/310.htm,0,,"Asia/Tokyo"
"P430",,"ダイタビル前","",35.665599,138.566249,,http://yamanashikotsu.co.jp/jikoku/527.htm,0,,"Asia/Tokyo"
"P146",,"宝一丁目","",35.667183,138.561711,,http://yamanashikotsu.co.jp/jikoku/532.htm,0,,"Asia/Tokyo"
"P426",,"飯田三丁目","",35.667863,138.558208,,http://yamanashikotsu.co.jp/jikoku/60.htm,0,,"Asia/Tokyo"
"P424",,"甲府地方気象台","",35.667663,138.554053,,http://yamanashikotsu.co.jp/jikoku/322.htm,0,,"Asia/Tokyo"
"P423",,"八幡神社入口","",35.667501,138.552277,,http://yamanashikotsu.co.jp/jikoku/730.htm,0,,"Asia/Tokyo"
"P421",,"甲府城西高校","",35.668162,138.547643,,http://yamanashikotsu.co.jp/jikoku/319.htm,0,,"Asia/Tokyo"
"P418",,"長松寺町","",35.668571,138.542742,,http://yamanashikotsu.co.jp/jikoku/579.htm,0,,"Asia/Tokyo"
"P416",,"東海高校","",35.668508,138.539805,,http://yamanashikotsu.co.jp/jikoku/601.htm,0,,"Asia/Tokyo"
"P415",,"池田二丁目","",35.670988,138.537447,,http://yamanashikotsu.co.jp/jikoku/69.htm,0,,"Asia/Tokyo"
"P414",,"長塚東","",35.672692,138.535329,,http://yamanashikotsu.co.jp/jikoku/658.htm,0,,"Asia/Tokyo"
"P413",,"長塚入口","",35.673701,138.533810,,http://yamanashikotsu.co.jp/jikoku/657.htm,0,,"Asia/Tokyo"
"P410",,"長塚(甲斐市)","",35.676901,138.533405,,http://yamanashikotsu.co.jp/jikoku/656.htm,0,,"Asia/Tokyo"
"P411",,"中下条","",35.679978,138.532995,,http://yamanashikotsu.co.jp/jikoku/648.htm,0,,"Asia/Tokyo"
"P438",,"中下条南","",35.676461,138.529656,,http://yamanashikotsu.co.jp/jikoku/1037.htm,0,,"Asia/Tokyo"
"P436",,"大下条北","",35.676494,138.526614,,http://yamanashikotsu.co.jp/jikoku/1038.htm,0,,"Asia/Tokyo"
"P442",,"さつきの団地","",35.677688,138.520311,,http://yamanashikotsu.co.jp/jikoku/1039.htm,0,,"Asia/Tokyo"
"P443",,"登美希望が丘","",35.678758,138.516709,,http://yamanashikotsu.co.jp/jikoku/1040.htm,0,,"Asia/Tokyo"
"P445",,"響が丘　レストラン山交入口","",35.681566,138.511819,,http://yamanashikotsu.co.jp/jikoku/1041.htm,0,,"Asia/Tokyo"
"P448",,"双葉ニュータウン","",35.683760,138.508337,,http://yamanashikotsu.co.jp/jikoku/1042.htm,0,,"Asia/Tokyo"
"P447",,"双葉ニュータウン","",35.683801,138.508480,,http://yamanashikotsu.co.jp/jikoku/1042.htm,0,,"Asia/Tokyo"
"P446",,"響が丘　レストラン山交入口","",35.681466,138.512001,,http://yamanashikotsu.co.jp/jikoku/1041.htm,0,,"Asia/Tokyo"
"P444",,"登美希望が丘","",35.679019,138.516167,,http://yamanashikotsu.co.jp/jikoku/1040.htm,0,,"Asia/Tokyo"
"P441",,"さつきの団地","",35.677755,138.520228,,http://yamanashikotsu.co.jp/jikoku/1039.htm,0,,"Asia/Tokyo"
"P435",,"大下条北","",35.676662,138.525493,,http://yamanashikotsu.co.jp/jikoku/1038.htm,0,,"Asia/Tokyo"
"P437",,"中下条南","",35.676553,138.529728,,http://yamanashikotsu.co.jp/jikoku/1037.htm,0,,"Asia/Tokyo"
"P412",,"長塚入口","",35.673709,138.533896,,http://yamanashikotsu.co.jp/jikoku/657.htm,0,,"Asia/Tokyo"
"P417",,"東海高校","",35.668556,138.540084,,http://yamanashikotsu.co.jp/jikoku/601.htm,0,,"Asia/Tokyo"
"P419",,"長松寺町","",35.668628,138.543383,,http://yamanashikotsu.co.jp/jikoku/579.htm,0,,"Asia/Tokyo"
"P420",,"甲府城西高校","",35.668395,138.547562,,http://yamanashikotsu.co.jp/jikoku/319.htm,0,,"Asia/Tokyo"
"P422",,"八幡神社入口","",35.667541,138.552208,,http://yamanashikotsu.co.jp/jikoku/730.htm,0,,"Asia/Tokyo"
"P425",,"甲府地方気象台","",35.667767,138.554329,,http://yamanashikotsu.co.jp/jikoku/322.htm,0,,"Asia/Tokyo"
"P427",,"飯田三丁目","",35.667987,138.557781,,http://yamanashikotsu.co.jp/jikoku/60.htm,0,,"Asia/Tokyo"
"P147",,"宝一丁目","",35.667345,138.561432,,http://yamanashikotsu.co.jp/jikoku/532.htm,0,,"Asia/Tokyo"
"P431",,"丸の内二丁目西","",35.665893,138.565498,,http://yamanashikotsu.co.jp/jikoku/853.htm,0,,"Asia/Tokyo"
"P126",,"丸の内二丁目東","",35.665887,138.567979,,http://yamanashikotsu.co.jp/jikoku/853.htm,0,,"Asia/Tokyo"
"P429",,"飯田二丁目","",35.668813,138.555166,,http://yamanashikotsu.co.jp/jikoku/61.htm,0,,"Asia/Tokyo"
"P404",,"並木通り商店街","",35.670888,138.552229,,http://yamanashikotsu.co.jp/jikoku/672.htm,0,,"Asia/Tokyo"
"P405",,"県立中央病院","",35.671243,138.550145,,http://yamanashikotsu.co.jp/jikoku/285.htm,0,,"Asia/Tokyo"
"P403",,"並木通り商店街","",35.670907,138.552704,,http://yamanashikotsu.co.jp/jikoku/672.htm,0,,"Asia/Tokyo"
"P401",,"県立中央病院入口","",35.671319,138.553675,,http://yamanashikotsu.co.jp/jikoku/286.htm,0,,"Asia/Tokyo"
"P399",,"千塚団地","",35.675426,138.552910,,http://yamanashikotsu.co.jp/jikoku/560.htm,0,,"Asia/Tokyo"
"P400",,"千塚団地","",35.674733,138.552881,,http://yamanashikotsu.co.jp/jikoku/560.htm,0,,"Asia/Tokyo"
"P402",,"県立中央病院入口","",35.671583,138.553594,,http://yamanashikotsu.co.jp/jikoku/286.htm,0,,"Asia/Tokyo"
"P428",,"飯田二丁目","",35.668663,138.555359,,http://yamanashikotsu.co.jp/jikoku/61.htm,0,,"Asia/Tokyo"
"P479",,"団地正門前","",35.664242,138.532644,,http://yamanashikotsu.co.jp/jikoku/557.htm,0,,"Asia/Tokyo"
"P480",,"貢川団地","",35.664501,138.533558,,http://yamanashikotsu.co.jp/jikoku/259.htm,0,,"Asia/Tokyo"
"P477",,"貢川団地入口","",35.662561,138.532273,,http://yamanashikotsu.co.jp/jikoku/260.htm,0,,"Asia/Tokyo"
"P486",,"竜王新町","",35.665878,138.518557,,http://yamanashikotsu.co.jp/jikoku/989.htm,0,,"Asia/Tokyo"
"P534",,"四ツ谷","",35.664769,138.509759,,http://yamanashikotsu.co.jp/jikoku/984.htm,0,,"Asia/Tokyo"
"P533",,"本竜王","",35.663871,138.506377,,http://yamanashikotsu.co.jp/jikoku/827.htm,0,,"Asia/Tokyo"
"P700",,"信玄橋","",35.663490,138.495975,,http://yamanashikotsu.co.jp/jikoku/489.htm,0,,"Asia/Tokyo"
"P531",,"野牛島東","",35.663875,138.489795,,http://yamanashikotsu.co.jp/jikoku/948.htm,0,,"Asia/Tokyo"
"P529",,"野牛島下","",35.662947,138.484407,,http://yamanashikotsu.co.jp/jikoku/926.htm,0,,"Asia/Tokyo"
"P528",,"野牛島","",35.662335,138.481885,,http://yamanashikotsu.co.jp/jikoku/924.htm,0,,"Asia/Tokyo"
"P508",,"野牛島上","",35.663198,138.475408,,http://yamanashikotsu.co.jp/jikoku/925.htm,0,,"Asia/Tokyo"
"P507",,"六科下","",35.662988,138.468748,,http://yamanashikotsu.co.jp/jikoku/911.htm,0,,"Asia/Tokyo"
"P505",,"六科","",35.662513,138.464132,,http://yamanashikotsu.co.jp/jikoku/908.htm,0,,"Asia/Tokyo"
"P523",,"宮入製作所","",35.662276,138.461592,,http://yamanashikotsu.co.jp/jikoku/899.htm,0,,"Asia/Tokyo"
"P524",,"六科上","",35.661842,138.457451,,http://yamanashikotsu.co.jp/jikoku/909.htm,0,,"Asia/Tokyo"
"P525",,"北新田入口","",35.661230,138.451488,,http://yamanashikotsu.co.jp/jikoku/240.htm,0,,"Asia/Tokyo"
"P526",,"富士通アイネット入口","",35.660831,138.447682,,http://yamanashikotsu.co.jp/jikoku/788.htm,0,,"Asia/Tokyo"
"P521",,"有野入口・わかば支援学校入口","",35.660393,138.444860,,http://yamanashikotsu.co.jp/jikoku/59.htm,0,,"Asia/Tokyo"
"P520",,"源","",35.659266,138.441639,,http://yamanashikotsu.co.jp/jikoku/886.htm,0,,"Asia/Tokyo"
"P515",,"御勅使","",35.661134,138.440553,,http://yamanashikotsu.co.jp/jikoku/30.htm,0,,"Asia/Tokyo"
"P519",,"源","",35.659203,138.441330,,http://yamanashikotsu.co.jp/jikoku/886.htm,0,,"Asia/Tokyo"
"P522",,"有野入口・わかば支援学校入口","",35.660665,138.445735,,http://yamanashikotsu.co.jp/jikoku/59.htm,0,,"Asia/Tokyo"
"P506",,"六科","",35.662718,138.465900,,http://yamanashikotsu.co.jp/jikoku/908.htm,0,,"Asia/Tokyo"
"P509",,"野牛島上","",35.662738,138.476247,,http://yamanashikotsu.co.jp/jikoku/925.htm,0,,"Asia/Tokyo"
"P510",,"野牛島","",35.662291,138.481491,,http://yamanashikotsu.co.jp/jikoku/924.htm,0,,"Asia/Tokyo"
"P530",,"野牛島東","",35.663919,138.489380,,http://yamanashikotsu.co.jp/jikoku/948.htm,0,,"Asia/Tokyo"
"P699",,"信玄橋","",35.663642,138.495546,,http://yamanashikotsu.co.jp/jikoku/489.htm,0,,"Asia/Tokyo"
"P532",,"本竜王","",35.663915,138.506194,,http://yamanashikotsu.co.jp/jikoku/827.htm,0,,"Asia/Tokyo"
"P487",,"竜王新町","",35.665839,138.517629,,http://yamanashikotsu.co.jp/jikoku/989.htm,0,,"Asia/Tokyo"
"P504",,"六科","",35.662882,138.464915,,http://yamanashikotsu.co.jp/jikoku/908.htm,0,,"Asia/Tokyo"
"P503",,"六科北口","",35.665290,138.464540,,http://yamanashikotsu.co.jp/jikoku/town/910.htm,0,,"Asia/Tokyo"
"P502",,"御勅使南公園入口","",35.668700,138.464738,,http://yamanashikotsu.co.jp/jikoku/town/868.htm,0,,"Asia/Tokyo"
"P501",,"真葛","",35.674119,138.464942,,http://yamanashikotsu.co.jp/jikoku/town/838.htm,0,,"Asia/Tokyo"
"P499",,"竜岡中央公民館","",35.678627,138.464607,,http://yamanashikotsu.co.jp/jikoku/town/544.htm,0,,"Asia/Tokyo"
"P498",,"土橋","",35.680607,138.459910,,http://yamanashikotsu.co.jp/jikoku/town/620.htm,0,,"Asia/Tokyo"
"P497",,"羽根","",35.685024,138.453272,,http://yamanashikotsu.co.jp/jikoku/town/736.htm,0,,"Asia/Tokyo"
"P496",,"南宮神社前","",35.685387,138.450243,,http://yamanashikotsu.co.jp/jikoku/town/678.htm,0,,"Asia/Tokyo"
"P495",,"若宮神社","",35.688239,138.449568,,http://yamanashikotsu.co.jp/jikoku/town/1004.htm,0,,"Asia/Tokyo"
"P494",,"タンガロイ前","",35.689479,138.448449,,http://yamanashikotsu.co.jp/jikoku/town/605.htm,0,,"Asia/Tokyo"
"P493",,"子の神前","",35.693470,138.445142,,http://yamanashikotsu.co.jp/jikoku/town/719.htm,0,,"Asia/Tokyo"
"P492",,"若尾","",35.696837,138.441494,,http://yamanashikotsu.co.jp/jikoku/town/994.htm,0,,"Asia/Tokyo"
"P491",,"若尾坂下","",35.696530,138.445821,,http://yamanashikotsu.co.jp/jikoku/town/995.htm,0,,"Asia/Tokyo"
"P490",,"老人福祉センター入口","",35.698395,138.448218,,http://yamanashikotsu.co.jp/jikoku/town/991.htm,0,,"Asia/Tokyo"
"P489",,"韮崎工業高校","",35.699024,138.450673,,http://yamanashikotsu.co.jp/jikoku/town/706.htm,0,,"Asia/Tokyo"
"P488",,"韮崎下町","",35.703376,138.454036,,http://yamanashikotsu.co.jp/jikoku/town/710.htm,0,,"Asia/Tokyo"
"P500",,"竜岡中央公民館","",35.678006,138.464875,,http://yamanashikotsu.co.jp/jikoku/town/544.htm,0,,"Asia/Tokyo"
"P121",,"甲府駅バスターミナル(1番)","",35.666534,138.568151,,http://yamanashikotsu.co.jp/jikoku/310.htm,0,,"Asia/Tokyo"
"P573",,"富竹","",35.657080,138.544695,,http://yamanashikotsu.co.jp/jikoku/623.htm,0,,"Asia/Tokyo"
"P572",,"富竹西","",35.654661,138.541959,,http://yamanashikotsu.co.jp/jikoku/624.htm,0,,"Asia/Tokyo"
"P570",,"徳行","",35.652401,138.539617,,http://yamanashikotsu.co.jp/jikoku/612.htm,0,,"Asia/Tokyo"
"P568",,"徳行南","",35.650965,138.533298,,http://yamanashikotsu.co.jp/jikoku/613.htm,0,,"Asia/Tokyo"
"P566",,"榎局","",35.650398,138.530230,,http://yamanashikotsu.co.jp/jikoku/120.htm,0,,"Asia/Tokyo"
"P564",,"榎","",35.649049,138.525930,,http://yamanashikotsu.co.jp/jikoku/119.htm,0,,"Asia/Tokyo"
"P562",,"篠原仲新居","",35.646453,138.523819,,http://yamanashikotsu.co.jp/jikoku/413.htm,0,,"Asia/Tokyo"
"P560",,"下八幡","",35.644890,138.522666,,http://yamanashikotsu.co.jp/jikoku/448.htm,0,,"Asia/Tokyo"
"P558",,"玉幡四ツ角","",35.642857,138.519246,,http://yamanashikotsu.co.jp/jikoku/550.htm,0,,"Asia/Tokyo"
"P556",,"農林高校","",35.639916,138.511811,,http://yamanashikotsu.co.jp/jikoku/720.htm,0,,"Asia/Tokyo"
"P553",,"上今諏訪","",35.637011,138.497327,,http://yamanashikotsu.co.jp/jikoku/206.htm,0,,"Asia/Tokyo"
"P595",,"白根高校入口","",35.639147,138.493518,,http://yamanashikotsu.co.jp/jikoku/484.htm,0,,"Asia/Tokyo"
"P596",,"西野東","",35.639591,138.486711,,http://yamanashikotsu.co.jp/jikoku/694.htm,0,,"Asia/Tokyo"
"P598",,"西野","",35.640121,138.482245,,http://yamanashikotsu.co.jp/jikoku/693.htm,0,,"Asia/Tokyo"
"P600",,"徳洲会病院入口","",35.640854,138.478632,,http://yamanashikotsu.co.jp/jikoku/1043.htm,0,,"Asia/Tokyo"
"P601",,"在家塚","",35.642591,138.469550,,http://yamanashikotsu.co.jp/jikoku/367.htm,0,,"Asia/Tokyo"
"P602",,"三階","",35.644232,138.464682,,http://yamanashikotsu.co.jp/jikoku/382.htm,0,,"Asia/Tokyo"
"P604",,"飯野上宿","",35.642013,138.464245,,http://yamanashikotsu.co.jp/jikoku/67.htm,0,,"Asia/Tokyo"
"P605",,"飯野","",35.637444,138.465374,,http://yamanashikotsu.co.jp/jikoku/1015.htm,0,,"Asia/Tokyo"
"P607",,"倉庫町","",35.633717,138.465972,,http://yamanashikotsu.co.jp/jikoku/520.htm,0,,"Asia/Tokyo"
"P609",,"巨摩共立病院","",35.629043,138.465199,,http://yamanashikotsu.co.jp/jikoku/351.htm,0,,"Asia/Tokyo"
"P610",,"桃園","",35.625421,138.464695,,http://yamanashikotsu.co.jp/jikoku/919.htm,0,,"Asia/Tokyo"
"P612",,"桃園新田","",35.620775,138.464634,,http://yamanashikotsu.co.jp/jikoku/920.htm,0,,"Asia/Tokyo"
"P615",,"春仙美術館","",35.617801,138.465374,,http://yamanashikotsu.co.jp/jikoku/262.htm,0,,"Asia/Tokyo"
"P616",,"巨摩高校","",35.615520,138.466436,,http://yamanashikotsu.co.jp/jikoku/352.htm,0,,"Asia/Tokyo"
"P619",,"小笠原橋","",35.611768,138.466860,,http://yamanashikotsu.co.jp/jikoku/161.htm,0,,"Asia/Tokyo"
"P631",,"小笠原","",35.608970,138.466844,,http://yamanashikotsu.co.jp/jikoku/158.htm,0,,"Asia/Tokyo"
"P633",,"小笠原下仲町","",35.605740,138.466514,,http://yamanashikotsu.co.jp/jikoku/159.htm,0,,"Asia/Tokyo"
"P634",,"小笠原下仲町","",35.605180,138.466339,,http://yamanashikotsu.co.jp/jikoku/159.htm,0,,"Asia/Tokyo"
"P632",,"小笠原","",35.608089,138.466809,,http://yamanashikotsu.co.jp/jikoku/158.htm,0,,"Asia/Tokyo"
"P618",,"小笠原橋","",35.611861,138.466693,,http://yamanashikotsu.co.jp/jikoku/161.htm,0,,"Asia/Tokyo"
"P617",,"巨摩高校","",35.614923,138.466685,,http://yamanashikotsu.co.jp/jikoku/352.htm,0,,"Asia/Tokyo"
"P614",,"春仙美術館","",35.617664,138.465344,,http://yamanashikotsu.co.jp/jikoku/262.htm,0,,"Asia/Tokyo"
"P613",,"桃園新田","",35.620738,138.464553,,http://yamanashikotsu.co.jp/jikoku/920.htm,0,,"Asia/Tokyo"
"P611",,"桃園","",35.625622,138.464655,,http://yamanashikotsu.co.jp/jikoku/919.htm,0,,"Asia/Tokyo"
"P608",,"巨摩共立病院","",35.630865,138.465500,,http://yamanashikotsu.co.jp/jikoku/351.htm,0,,"Asia/Tokyo"
"P606",,"飯野","",35.636917,138.465387,,http://yamanashikotsu.co.jp/jikoku/1015.htm,0,,"Asia/Tokyo"
"P603",,"三階","",35.644481,138.463920,,http://yamanashikotsu.co.jp/jikoku/382.htm,0,,"Asia/Tokyo"
"P599",,"徳洲会病院入口","",35.640915,138.478570,,http://yamanashikotsu.co.jp/jikoku/1043.htm,0,,"Asia/Tokyo"
"P597",,"西野","",35.640080,138.483117,,http://yamanashikotsu.co.jp/jikoku/693.htm,0,,"Asia/Tokyo"
"P594",,"白根高校入口","",35.639160,138.493837,,http://yamanashikotsu.co.jp/jikoku/484.htm,0,,"Asia/Tokyo"
"P552",,"上今諏訪","",35.637189,138.497370,,http://yamanashikotsu.co.jp/jikoku/206.htm,0,,"Asia/Tokyo"
"P554",,"農林高校","",35.639576,138.510845,,http://yamanashikotsu.co.jp/jikoku/720.htm,0,,"Asia/Tokyo"
"P557",,"玉幡四ツ角","",35.642584,138.517988,,http://yamanashikotsu.co.jp/jikoku/550.htm,0,,"Asia/Tokyo"
"P559",,"下八幡","",35.644034,138.521282,,http://yamanashikotsu.co.jp/jikoku/448.htm,0,,"Asia/Tokyo"
"P561",,"篠原仲新居","",35.645821,138.523310,,http://yamanashikotsu.co.jp/jikoku/413.htm,0,,"Asia/Tokyo"
"P563",,"榎","",35.648777,138.525635,,http://yamanashikotsu.co.jp/jikoku/119.htm,0,,"Asia/Tokyo"
"P565",,"榎局","",35.650466,138.530460,,http://yamanashikotsu.co.jp/jikoku/120.htm,0,,"Asia/Tokyo"
"P567",,"徳行南","",35.650873,138.532751,,http://yamanashikotsu.co.jp/jikoku/613.htm,0,,"Asia/Tokyo"
"P569",,"徳行","",35.651996,138.539110,,http://yamanashikotsu.co.jp/jikoku/612.htm,0,,"Asia/Tokyo"
"P571",,"富竹西","",35.654406,138.541637,,http://yamanashikotsu.co.jp/jikoku/624.htm,0,,"Asia/Tokyo"
"P574",,"富竹","",35.657431,138.545057,,http://yamanashikotsu.co.jp/jikoku/623.htm,0,,"Asia/Tokyo"
"P580",,"徳行(廃軌道)","",35.652342,138.541634,,http://yamanashikotsu.co.jp/jikoku/612.htm,0,,"Asia/Tokyo"
"P581",,"富竹西(廃軌道)","",35.654849,138.543992,,http://yamanashikotsu.co.jp/jikoku/624.htm,0,,"Asia/Tokyo"
"P579",,"富竹(廃軌道)","",35.657052,138.546087,,http://yamanashikotsu.co.jp/jikoku/623.htm,0,,"Asia/Tokyo"
"P578",,"貢川(廃軌道)","",35.658079,138.548544,,http://yamanashikotsu.co.jp/jikoku/257.htm,0,,"Asia/Tokyo"
"P577",,"貢川交番前(廃軌道)","",35.657802,138.550671,,http://yamanashikotsu.co.jp/jikoku/258.htm,0,,"Asia/Tokyo"
"P576",,"上石田町(廃軌道)","",35.657427,138.553565,,http://yamanashikotsu.co.jp/jikoku/200.htm,0,,"Asia/Tokyo"
"P583",,"今諏訪","",35.634423,138.495586,,http://yamanashikotsu.co.jp/jikoku/95.htm,0,,"Asia/Tokyo"
"P585",,"下今諏訪","",35.630377,138.494787,,http://yamanashikotsu.co.jp/jikoku/425.htm,0,,"Asia/Tokyo"
"P586",,"中条入口","",35.627255,138.491053,,http://yamanashikotsu.co.jp/jikoku/650.htm,0,,"Asia/Tokyo"
"P629",,"吉田","",35.623815,138.483514,,http://yamanashikotsu.co.jp/jikoku/610.htm,0,,"Asia/Tokyo"
"P627",,"ＪＡこま野豊支所","",35.620786,138.478908,,http://yamanashikotsu.co.jp/jikoku/970.htm,0,,"Asia/Tokyo"
"P626",,"十五所","",35.619386,138.476052,,http://yamanashikotsu.co.jp/jikoku/456.htm,0,,"Asia/Tokyo"
"P624",,"戸田町","",35.615311,138.470347,,http://yamanashikotsu.co.jp/jikoku/615.htm,0,,"Asia/Tokyo"
"P622",,"小笠原橋","",35.612123,138.467640,,http://yamanashikotsu.co.jp/jikoku/161.htm,0,,"Asia/Tokyo"
"P645",,"下宮地","",35.601379,138.465462,,http://yamanashikotsu.co.jp/jikoku/446.htm,0,,"Asia/Tokyo"
"P647",,"JAこま野大井支所","",35.596083,138.466388,,http://yamanashikotsu.co.jp/jikoku/388.htm,0,,"Asia/Tokyo"
"P649",,"古市場（南アルプス）","",35.591959,138.466602,,http://yamanashikotsu.co.jp/jikoku/801.htm,0,,"Asia/Tokyo"
"P651",,"荊沢","",35.587974,138.465996,,http://yamanashikotsu.co.jp/jikoku/747.htm,0,,"Asia/Tokyo"
"P653",,"甲西工業団地入口","",35.583893,138.465937,,http://yamanashikotsu.co.jp/jikoku/300.htm,0,,"Asia/Tokyo"
"P656",,"長沢新町","",35.575106,138.464548,,http://yamanashikotsu.co.jp/jikoku/643.htm,0,,"Asia/Tokyo"
"P658",,"長沢火の見","",35.571367,138.464674,,http://yamanashikotsu.co.jp/jikoku/644.htm,0,,"Asia/Tokyo"
"P659",,"長沢三丁目","",35.568264,138.464829,,http://yamanashikotsu.co.jp/jikoku/642.htm,0,,"Asia/Tokyo"
"P664",,"長沢","",35.566279,138.464703,,http://yamanashikotsu.co.jp/jikoku/641.htm,0,,"Asia/Tokyo"
"P662",,"増穂中学校入口","",35.564442,138.465261,,http://yamanashikotsu.co.jp/jikoku/844.htm,0,,"Asia/Tokyo"
"P661",,"追分","",35.561378,138.466490,,http://yamanashikotsu.co.jp/jikoku/130.htm,0,,"Asia/Tokyo"
"P4944",,"フォレストモール富士川","",35.557442,138.468842,,,0,,"Asia/Tokyo"
"P660",,"追分","",35.561542,138.466495,,http://yamanashikotsu.co.jp/jikoku/130.htm,0,,"Asia/Tokyo"
"P663",,"増穂中学校入口","",35.564867,138.465068,,http://yamanashikotsu.co.jp/jikoku/844.htm,0,,"Asia/Tokyo"
"P655",,"長沢新町","",35.575407,138.464548,,http://yamanashikotsu.co.jp/jikoku/643.htm,0,,"Asia/Tokyo"
"P654",,"甲西工業団地入口","",35.583452,138.465883,,http://yamanashikotsu.co.jp/jikoku/300.htm,0,,"Asia/Tokyo"
"P652",,"荊沢","",35.587047,138.465929,,http://yamanashikotsu.co.jp/jikoku/747.htm,0,,"Asia/Tokyo"
"P650",,"古市場（南アルプス）","",35.591826,138.466557,,http://yamanashikotsu.co.jp/jikoku/801.htm,0,,"Asia/Tokyo"
"P648",,"JAこま野大井支所","",35.596253,138.466347,,http://yamanashikotsu.co.jp/jikoku/388.htm,0,,"Asia/Tokyo"
"P646",,"下宮地","",35.601076,138.465248,,http://yamanashikotsu.co.jp/jikoku/446.htm,0,,"Asia/Tokyo"
"P621",,"小笠原橋","",35.611975,138.467436,,http://yamanashikotsu.co.jp/jikoku/161.htm,0,,"Asia/Tokyo"
"P623",,"戸田町","",35.615058,138.470178,,http://yamanashikotsu.co.jp/jikoku/615.htm,0,,"Asia/Tokyo"
"P625",,"十五所","",35.619430,138.476046,,http://yamanashikotsu.co.jp/jikoku/456.htm,0,,"Asia/Tokyo"
"P628",,"ＪＡこま野豊支所","",35.621008,138.479125,,http://yamanashikotsu.co.jp/jikoku/970.htm,0,,"Asia/Tokyo"
"P630",,"吉田","",35.624172,138.484477,,http://yamanashikotsu.co.jp/jikoku/610.htm,0,,"Asia/Tokyo"
"P587",,"中条入口","",35.627150,138.490798,,http://yamanashikotsu.co.jp/jikoku/650.htm,0,,"Asia/Tokyo"
"P584",,"下今諏訪","",35.631249,138.494897,,http://yamanashikotsu.co.jp/jikoku/425.htm,0,,"Asia/Tokyo"
"P582",,"今諏訪","",35.634667,138.495723,,http://yamanashikotsu.co.jp/jikoku/95.htm,0,,"Asia/Tokyo"
"P4822",,"甲府駅バスターミナル(2番)","",35.666704,138.568127,,http://yamanashikotsu.co.jp/jikoku/310.htm,0,,"Asia/Tokyo"
"P690",,"青柳","",35.559024,138.465588,,http://yamanashikotsu.co.jp/jikoku/16.htm,0,,"Asia/Tokyo"
"P692",,"ＪＡ富士川青柳支所","",35.556418,138.464215,,http://yamanashikotsu.co.jp/jikoku/273.htm,0,,"Asia/Tokyo"
"P693",,"増穂商業高校入口","",35.553824,138.462568,,http://yamanashikotsu.co.jp/jikoku/843.htm,0,,"Asia/Tokyo"
"P694",,"鰍沢警察署","",35.552024,138.461560,,http://yamanashikotsu.co.jp/jikoku/182.htm,0,,"Asia/Tokyo"
"P1147",,"小室山入口","",35.550029,138.460481,,http://yamanashikotsu.co.jp/jikoku/357.htm,0,,"Asia/Tokyo"
"P1148",,"南巨摩合同庁舎入口","",35.548250,138.459843,,http://yamanashikotsu.co.jp/jikoku/882.htm,0,,"Asia/Tokyo"
"P1150",,"鰍沢中学校入口","",35.545448,138.459274,,http://yamanashikotsu.co.jp/jikoku/183.htm,0,,"Asia/Tokyo"
"P1149",,"鰍沢本町","",35.544113,138.458717,,http://yamanashikotsu.co.jp/jikoku/185.htm,0,,"Asia/Tokyo"
"P1152",,"鰍沢営業所","",35.542144,138.457778,,http://yamanashikotsu.co.jp/jikoku/179.htm,0,,"Asia/Tokyo"
"P695",,"鰍沢警察署","",35.551912,138.461436,,http://yamanashikotsu.co.jp/jikoku/182.htm,0,,"Asia/Tokyo"
"P691",,"ＪＡ富士川青柳支所","",35.556613,138.464274,,http://yamanashikotsu.co.jp/jikoku/273.htm,0,,"Asia/Tokyo"
"P689",,"青柳","",35.559737,138.465824,,http://yamanashikotsu.co.jp/jikoku/16.htm,0,,"Asia/Tokyo"
"P348",,"朝日小学校入口","",35.673496,138.557215,,http://yamanashikotsu.co.jp/jikoku/2502.htm,0,,"Asia/Tokyo"
"P4208",,"甲府西高校","",35.661386,138.550923,,,0,,"Asia/Tokyo"
"P4205",,"甲府昭和高校入口","",35.645101,138.537008,,,0,,"Asia/Tokyo"
"P4210",,"農林高校入口","",35.638135,138.511183,,,0,,"Asia/Tokyo"
"P657",,"長沢新町","",35.574990,138.464529,,http://yamanashikotsu.co.jp/jikoku/643.htm,0,,"Asia/Tokyo"
"P4209",,"農林高校入口","",35.638248,138.511097,,,0,,"Asia/Tokyo"
"P4204",,"甲府昭和高校入口","",35.645241,138.536884,,,0,,"Asia/Tokyo"
"P347",,"朝日小学校入口","",35.673374,138.556990,,http://yamanashikotsu.co.jp/jikoku/2502.htm,0,,"Asia/Tokyo"
"P4212",,"小笠原車庫","",35.613315,138.450726,,,0,,"Asia/Tokyo"
"P4214",,"柿平上","",35.613755,138.454074,,,0,,"Asia/Tokyo"
"P4213",,"柿平下","",35.614082,138.456632,,,0,,"Asia/Tokyo"
"P688",,"滝沢川公園","",35.613789,138.460219,,http://yamanashikotsu.co.jp/jikoku/160.htm,0,,"Asia/Tokyo"
"P687",,"社会福祉会館","",35.612032,138.464408,,http://yamanashikotsu.co.jp/jikoku/453.htm,0,,"Asia/Tokyo"
"P117",,"甲府駅バスターミナル(6番・高速バス)","",35.666432,138.568542,,http://yamanashikotsu.co.jp/jikoku/310.htm,0,,"Asia/Tokyo"
"P686",,"社会福祉会館","",35.611833,138.464821,,http://yamanashikotsu.co.jp/jikoku/453.htm,0,,"Asia/Tokyo"
"P234",,"甲府市自治研修センター南","",35.655769,138.566490,,http://yamanashikotsu.co.jp/jikoku/987.htm,0,,"Asia/Tokyo"
"P237",,"相生三丁目","",35.653243,138.567405,,http://yamanashikotsu.co.jp/jikoku/1.htm,0,,"Asia/Tokyo"
"P238",,"伊勢一丁目","",35.650632,138.568290,,http://yamanashikotsu.co.jp/jikoku/76.htm,0,,"Asia/Tokyo"
"P794",,"千秋橋","",35.647462,138.564473,,http://yamanashikotsu.co.jp/jikoku/516.htm,0,,"Asia/Tokyo"
"P796",,"国母一丁目","",35.645533,138.562086,,http://yamanashikotsu.co.jp/jikoku/328.htm,0,,"Asia/Tokyo"
"P791",,"国母・下石田四ツ角","",35.644267,138.560493,,http://yamanashikotsu.co.jp/jikoku/331.htm,0,,"Asia/Tokyo"
"P729",,"国母小学校","",35.641120,138.556531,,http://yamanashikotsu.co.jp/jikoku/332.htm,0,,"Asia/Tokyo"
"P726",,"甲府市地方卸売市場入口","",35.639411,138.554394,,http://yamanashikotsu.co.jp/jikoku/324.htm,0,,"Asia/Tokyo"
"P724",,"上条","",35.636531,138.551170,,http://yamanashikotsu.co.jp/jikoku/217.htm,0,,"Asia/Tokyo"
"P723",,"国母八丁目","",35.634022,138.548404,,http://yamanashikotsu.co.jp/jikoku/333.htm,0,,"Asia/Tokyo"
"P722",,"国母駅入口","",35.631268,138.546022,,http://yamanashikotsu.co.jp/jikoku/329.htm,0,,"Asia/Tokyo"
"P720",,"押越","",35.626459,138.540975,,http://yamanashikotsu.co.jp/jikoku/163.htm,0,,"Asia/Tokyo"
"P719",,"押原","",35.623729,138.537759,,http://yamanashikotsu.co.jp/jikoku/164.htm,0,,"Asia/Tokyo"
"P718",,"中島","",35.621377,138.535066,,http://yamanashikotsu.co.jp/jikoku/645.htm,0,,"Asia/Tokyo"
"P716",,"上河東四ツ角","",35.619554,138.532890,,http://yamanashikotsu.co.jp/jikoku/212.htm,0,,"Asia/Tokyo"
"P714",,"上河東","",35.616763,138.529516,,http://yamanashikotsu.co.jp/jikoku/211.htm,0,,"Asia/Tokyo"
"P713",,"河西入口","",35.614520,138.526880,,http://yamanashikotsu.co.jp/jikoku/178.htm,0,,"Asia/Tokyo"
"P711",,"山の神入口","",35.610440,138.523889,,http://yamanashikotsu.co.jp/jikoku/959.htm,0,,"Asia/Tokyo"
"P710",,"小井川駅入口","",35.605889,138.522875,,http://yamanashikotsu.co.jp/jikoku/287.htm,0,,"Asia/Tokyo"
"P709",,"妙泉寺","",35.602216,138.522591,,http://yamanashikotsu.co.jp/jikoku/906.htm,0,,"Asia/Tokyo"
"P708",,"中央市田富庁舎入口","",35.600805,138.522749,,http://yamanashikotsu.co.jp/jikoku/546.htm,0,,"Asia/Tokyo"
"P701",,"田富学校","",35.596895,138.522768,,http://yamanashikotsu.co.jp/jikoku/545.htm,0,,"Asia/Tokyo"
"P706",,"花輪","",35.593761,138.521706,,http://yamanashikotsu.co.jp/jikoku/734.htm,0,,"Asia/Tokyo"
"P705",,"花輪西","",35.593708,138.518428,,http://yamanashikotsu.co.jp/jikoku/735.htm,0,,"Asia/Tokyo"
"P704",,"臼井入口","",35.593673,138.514587,,http://yamanashikotsu.co.jp/jikoku/106.htm,0,,"Asia/Tokyo"
"P678",,"浅原","",35.594262,138.504263,,http://yamanashikotsu.co.jp/jikoku/29.htm,0,,"Asia/Tokyo"
"P677",,"若草団地","",35.591566,138.501377,,http://yamanashikotsu.co.jp/jikoku/6011.htm,0,,"Asia/Tokyo"
"P676",,"一軒茶屋","",35.588103,138.497898,,http://yamanashikotsu.co.jp/jikoku/6010.htm,0,,"Asia/Tokyo"
"P675",,"やまなみの湯","",35.585692,138.496428,,http://yamanashikotsu.co.jp/jikoku/6009.htm,0,,"Asia/Tokyo"
"P674",,"南湖小学校","",35.583380,138.494403,,http://yamanashikotsu.co.jp/jikoku/6008.htm,0,,"Asia/Tokyo"
"P673",,"南湖北","",35.581805,138.493454,,http://yamanashikotsu.co.jp/jikoku/6007.htm,0,,"Asia/Tokyo"
"P672",,"南湖南","",35.579222,138.491448,,http://yamanashikotsu.co.jp/jikoku/6006.htm,0,,"Asia/Tokyo"
"P671",,"南湖下宿","",35.577495,138.489677,,http://yamanashikotsu.co.jp/jikoku/6005.htm,0,,"Asia/Tokyo"
"P669",,"三郡橋","",35.573282,138.484082,,http://yamanashikotsu.co.jp/jikoku/6004.htm,0,,"Asia/Tokyo"
"P668",,"横川","",35.569436,138.478511,,http://yamanashikotsu.co.jp/jikoku/6003.htm,0,,"Asia/Tokyo"
"P667",,"増穂橋","",35.565729,138.474292,,http://yamanashikotsu.co.jp/jikoku/6002.htm,0,,"Asia/Tokyo"
"P666",,"大椚","",35.564926,138.469765,,http://yamanashikotsu.co.jp/jikoku/134.htm,0,,"Asia/Tokyo"
"P670",,"三郡橋","",35.573620,138.484565,,http://yamanashikotsu.co.jp/jikoku/6004.htm,0,,"Asia/Tokyo"
"P703",,"花輪","",35.593817,138.521751,,http://yamanashikotsu.co.jp/jikoku/734.htm,0,,"Asia/Tokyo"
"P702",,"田富学校","",35.596683,138.522722,,http://yamanashikotsu.co.jp/jikoku/545.htm,0,,"Asia/Tokyo"
"P707",,"中央市田富庁舎入口","",35.599950,138.522722,,http://yamanashikotsu.co.jp/jikoku/546.htm,0,,"Asia/Tokyo"
"P712",,"河西入口","",35.614328,138.526660,,http://yamanashikotsu.co.jp/jikoku/178.htm,0,,"Asia/Tokyo"
"P715",,"上河東四ツ角","",35.619393,138.532625,,http://yamanashikotsu.co.jp/jikoku/212.htm,0,,"Asia/Tokyo"
"P717",,"中島","",35.620980,138.534535,,http://yamanashikotsu.co.jp/jikoku/645.htm,0,,"Asia/Tokyo"
"P721",,"国母駅入口","",35.631486,138.546135,,http://yamanashikotsu.co.jp/jikoku/329.htm,0,,"Asia/Tokyo"
"P725",,"上条","",35.636524,138.551060,,http://yamanashikotsu.co.jp/jikoku/217.htm,0,,"Asia/Tokyo"
"P727",,"甲府市地方卸売市場入口","",35.639687,138.554576,,http://yamanashikotsu.co.jp/jikoku/324.htm,0,,"Asia/Tokyo"
"P728",,"国母小学校","",35.640926,138.556145,,http://yamanashikotsu.co.jp/jikoku/332.htm,0,,"Asia/Tokyo"
"P792",,"国母・下石田四ツ角","",35.644583,138.560724,,http://yamanashikotsu.co.jp/jikoku/331.htm,0,,"Asia/Tokyo"
"P795",,"国母一丁目","",35.645337,138.561670,,http://yamanashikotsu.co.jp/jikoku/328.htm,0,,"Asia/Tokyo"
"P793",,"千秋橋","",35.647417,138.564251,,http://yamanashikotsu.co.jp/jikoku/516.htm,0,,"Asia/Tokyo"
"P239",,"伊勢一丁目","",35.650514,138.568140,,http://yamanashikotsu.co.jp/jikoku/76.htm,0,,"Asia/Tokyo"
"P236",,"相生三丁目","",35.653144,138.567252,,http://yamanashikotsu.co.jp/jikoku/1.htm,0,,"Asia/Tokyo"
"P235",,"甲府市自治研修センター南","",35.655633,138.566338,,http://yamanashikotsu.co.jp/jikoku/987.htm,0,,"Asia/Tokyo"
"P764",,"常永駅","",35.617522,138.533824,,http://yamanashikotsu.co.jp/jikoku/458.htm,0,,"Asia/Tokyo"
"P765",,"井之口西","",35.614642,138.535479,,http://yamanashikotsu.co.jp/jikoku/94.htm,0,,"Asia/Tokyo"
"P766",,"山梨大学医学部附属病院","",35.610372,138.539043,,http://yamanashikotsu.co.jp/jikoku/946.htm,0,,"Asia/Tokyo"
"P763",,"常永駅","",35.617553,138.533649,,http://yamanashikotsu.co.jp/jikoku/458.htm,0,,"Asia/Tokyo"
"P240",,"伊勢小学校正門","",35.645518,138.566941,,http://yamanashikotsu.co.jp/jikoku/79.htm,0,,"Asia/Tokyo"
"P243",,"伊勢三丁目","",35.641124,138.565825,,http://yamanashikotsu.co.jp/jikoku/77.htm,0,,"Asia/Tokyo"
"P790",,"甲府市地方卸売市場東口","",35.635088,138.563079,,http://yamanashikotsu.co.jp/jikoku/325.htm,0,,"Asia/Tokyo"
"P788",,"古上条町","",35.632978,138.562263,,http://yamanashikotsu.co.jp/jikoku/903.htm,0,,"Asia/Tokyo"
"P786",,"後屋町","",35.630272,138.561225,,http://yamanashikotsu.co.jp/jikoku/105.htm,0,,"Asia/Tokyo"
"P784",,"後屋団地","",35.627926,138.559133,,http://yamanashikotsu.co.jp/jikoku/104.htm,0,,"Asia/Tokyo"
"P782",,"大里北団地","",35.625543,138.557569,,http://yamanashikotsu.co.jp/jikoku/135.htm,0,,"Asia/Tokyo"
"P780",,"国母工業団地入口","",35.622064,138.557309,,http://yamanashikotsu.co.jp/jikoku/330.htm,0,,"Asia/Tokyo"
"P778",,"大里南団地","",35.619463,138.559584,,http://yamanashikotsu.co.jp/jikoku/139.htm,0,,"Asia/Tokyo"
"P774",,"古市場(大里)","",35.618826,138.560713,,http://yamanashikotsu.co.jp/jikoku/802.htm,0,,"Asia/Tokyo"
"P772",,"宮原","",35.614620,138.559216,,http://yamanashikotsu.co.jp/jikoku/903.htm,0,,"Asia/Tokyo"
"P770",,"高室入口","",35.611345,138.558087,,http://yamanashikotsu.co.jp/jikoku/531.htm,0,,"Asia/Tokyo"
"P769",,"中楯","",35.610202,138.548801,,http://yamanashikotsu.co.jp/jikoku/655.htm,0,,"Asia/Tokyo"
"P768",,"上成島","",35.608135,138.545320,,http://yamanashikotsu.co.jp/jikoku/222.htm,0,,"Asia/Tokyo"
"P767",,"医大宿舎入口","",35.606214,138.543992,,http://yamanashikotsu.co.jp/jikoku/82.htm,0,,"Asia/Tokyo"
"P771",,"高室入口","",35.611408,138.558017,,http://yamanashikotsu.co.jp/jikoku/531.htm,0,,"Asia/Tokyo"
"P773",,"古市場(大里)","",35.617939,138.560345,,http://yamanashikotsu.co.jp/jikoku/802.htm,0,,"Asia/Tokyo"
"P777",,"大里南団地","",35.619323,138.559881,,http://yamanashikotsu.co.jp/jikoku/139.htm,0,,"Asia/Tokyo"
"P779",,"国母工業団地入口","",35.621682,138.557293,,http://yamanashikotsu.co.jp/jikoku/330.htm,0,,"Asia/Tokyo"
"P781",,"大里北団地","",35.625613,138.557494,,http://yamanashikotsu.co.jp/jikoku/135.htm,0,,"Asia/Tokyo"
"P783",,"後屋団地","",35.627386,138.558334,,http://yamanashikotsu.co.jp/jikoku/104.htm,0,,"Asia/Tokyo"
"P785",,"後屋町","",35.630052,138.561121,,http://yamanashikotsu.co.jp/jikoku/105.htm,0,,"Asia/Tokyo"
"P787",,"古上条町","",35.632744,138.562118,,http://yamanashikotsu.co.jp/jikoku/903.htm,0,,"Asia/Tokyo"
"P789",,"甲府市地方卸売市場東口","",35.634652,138.562813,,http://yamanashikotsu.co.jp/jikoku/325.htm,0,,"Asia/Tokyo"
"P242",,"伊勢三丁目","",35.641965,138.565637,,http://yamanashikotsu.co.jp/jikoku/77.htm,0,,"Asia/Tokyo"
"P241",,"伊勢小学校正門","",35.645185,138.566651,,http://yamanashikotsu.co.jp/jikoku/79.htm,0,,"Asia/Tokyo"
"P762",,"上河東四ツ角","",35.619266,138.531785,,http://yamanashikotsu.co.jp/jikoku/212.htm,0,,"Asia/Tokyo"
"P4239",,"イオンモール甲府昭和","",35.622066,138.526670,,　,0,,"Asia/Tokyo"
"P758",,"曲淵","",35.627885,138.531807,,http://yamanashikotsu.co.jp/jikoku/833.htm,0,,"Asia/Tokyo"
"P756",,"昭和町役場入口","",35.629947,138.532778,,http://yamanashikotsu.co.jp/jikoku/475.htm,0,,"Asia/Tokyo"
"P754",,"五本杉","",35.632507,138.538901,,http://yamanashikotsu.co.jp/jikoku/349.htm,0,,"Asia/Tokyo"
"P752",,"西条","",35.634674,138.542254,,http://yamanashikotsu.co.jp/jikoku/368.htm,0,,"Asia/Tokyo"
"P751",,"ＮＴＴ新甲府ビル","",35.638294,138.546779,,http://yamanashikotsu.co.jp/jikoku/118.htm,0,,"Asia/Tokyo"
"P749",,"清水新居","",35.642432,138.551044,,http://yamanashikotsu.co.jp/jikoku/418.htm,0,,"Asia/Tokyo"
"P747",,"甲府市上下水道局","",35.644016,138.553106,,http://yamanashikotsu.co.jp/jikoku/314.htm,0,,"Asia/Tokyo"
"P745",,"南西中学校","",35.647757,138.556539,,http://yamanashikotsu.co.jp/jikoku/685.htm,0,,"Asia/Tokyo"
"P743",,"沼川橋","",35.650257,138.558208,,http://yamanashikotsu.co.jp/jikoku/715.htm,0,,"Asia/Tokyo"
"P741",,"石田小学校","",35.652107,138.559769,,http://yamanashikotsu.co.jp/jikoku/74.htm,0,,"Asia/Tokyo"
"P739",,"飯豊橋南","",35.654380,138.561984,,http://yamanashikotsu.co.jp/jikoku/66.htm,0,,"Asia/Tokyo"
"P737",,"飯豊橋北","",35.657462,138.564135,,http://yamanashikotsu.co.jp/jikoku/65.htm,0,,"Asia/Tokyo"
"P183",,"上町北","",35.689842,138.524026,,http://yamanashikotsu.co.jp/jikoku/1007.htm,0,,"Asia/Tokyo"
"P184",,"志麻の里","",35.691065,138.519246,,http://yamanashikotsu.co.jp/jikoku/415.htm,0,,"Asia/Tokyo"
"P185",,"敷島団地","",35.692620,138.517816,,http://yamanashikotsu.co.jp/jikoku/403.htm,0,,"Asia/Tokyo"
"P738",,"飯豊橋北","",35.657290,138.564098,,http://yamanashikotsu.co.jp/jikoku/65.htm,0,,"Asia/Tokyo"
"P740",,"飯豊橋南","",35.654156,138.561939,,http://yamanashikotsu.co.jp/jikoku/66.htm,0,,"Asia/Tokyo"
"P742",,"石田小学校","",35.651972,138.559678,,http://yamanashikotsu.co.jp/jikoku/74.htm,0,,"Asia/Tokyo"
"P744",,"沼川橋","",35.649897,138.558084,,http://yamanashikotsu.co.jp/jikoku/715.htm,0,,"Asia/Tokyo"
"P746",,"南西中学校","",35.647720,138.556601,,http://yamanashikotsu.co.jp/jikoku/685.htm,0,,"Asia/Tokyo"
"P748",,"甲府市上下水道局","",35.643936,138.553090,,http://yamanashikotsu.co.jp/jikoku/314.htm,0,,"Asia/Tokyo"
"P750",,"清水新居","",35.642366,138.551052,,http://yamanashikotsu.co.jp/jikoku/418.htm,0,,"Asia/Tokyo"
"P753",,"西条","",35.634562,138.542259,,http://yamanashikotsu.co.jp/jikoku/368.htm,0,,"Asia/Tokyo"
"P755",,"五本杉","",35.632446,138.538995,,http://yamanashikotsu.co.jp/jikoku/349.htm,0,,"Asia/Tokyo"
"P757",,"昭和町役場入口","",35.629899,138.532874,,http://yamanashikotsu.co.jp/jikoku/475.htm,0,,"Asia/Tokyo"
"P759",,"曲淵","",35.627711,138.531890,,http://yamanashikotsu.co.jp/jikoku/833.htm,0,,"Asia/Tokyo"
"P244",,"住吉二丁目","",35.637791,138.566839,,http://yamanashikotsu.co.jp/jikoku/105.htm,0,,"Asia/Tokyo"
"P247",,"彩火橋北","",35.634168,138.568119,,http://yamanashikotsu.co.jp/jikoku/365.htm,0,,"Asia/Tokyo"
"P249",,"彩火橋南","",35.630878,138.569972,,http://yamanashikotsu.co.jp/jikoku/366.htm,0,,"Asia/Tokyo"
"P250",,"南甲府警察署","",35.629047,138.571533,,http://yamanashikotsu.co.jp/jikoku/881.htm,0,,"Asia/Tokyo"
"P323",,"甲府商業高校入口","",35.625502,138.571914,,http://yamanashikotsu.co.jp/jikoku/318.htm,0,,"Asia/Tokyo"
"P800",,"上今井町西","",35.622110,138.572292,,http://yamanashikotsu.co.jp/jikoku/205.htm,0,,"Asia/Tokyo"
"P801",,"駿台今井キャンパス","",35.622240,138.574628,,http://yamanashikotsu.co.jp/jikoku/508.htm,0,,"Asia/Tokyo"
"P799",,"上今井町西","",35.622264,138.572128,,http://yamanashikotsu.co.jp/jikoku/205.htm,0,,"Asia/Tokyo"
"P322",,"甲府商業高校入口","",35.626769,138.571584,,http://yamanashikotsu.co.jp/jikoku/318.htm,0,,"Asia/Tokyo"
"P351",,"南甲府警察署","",35.628517,138.571420,,http://yamanashikotsu.co.jp/jikoku/881.htm,0,,"Asia/Tokyo"
"P248",,"彩火橋南","",35.631079,138.569401,,http://yamanashikotsu.co.jp/jikoku/366.htm,0,,"Asia/Tokyo"
"P246",,"彩火橋北","",35.634334,138.567874,,http://yamanashikotsu.co.jp/jikoku/365.htm,0,,"Asia/Tokyo"
"P245",,"住吉二丁目","",35.637338,138.566807,,http://yamanashikotsu.co.jp/jikoku/105.htm,0,,"Asia/Tokyo"
"P293",,"若松町南","",35.653583,138.571841,,http://yamanashikotsu.co.jp/jikoku/999.htm,0,,"Asia/Tokyo"
"P4215",,"甲斐清和高校","",35.651470,138.573470,,,0,,"Asia/Tokyo"
"P257",,"伊勢町営業所","",35.640306,138.570168,,http://yamanashikotsu.co.jp/jikoku/80.htm,0,,"Asia/Tokyo"
"P256",,"甲府職業安定所","",35.638070,138.570433,,http://yamanashikotsu.co.jp/jikoku/320.htm,0,,"Asia/Tokyo"
"P255",,"甲斐住吉駅","",35.636633,138.570618,,http://yamanashikotsu.co.jp/jikoku/175.htm,0,,"Asia/Tokyo"
"P252",,"中小河原","",35.631746,138.571179,,http://yamanashikotsu.co.jp/jikoku/639.htm,0,,"Asia/Tokyo"
"P251",,"甲府南高校","",35.630348,138.571259,,http://yamanashikotsu.co.jp/jikoku/327.htm,0,,"Asia/Tokyo"
"P913",,"甲府商業高校","",35.628035,138.573132,,http://yamanashikotsu.co.jp/jikoku/317.htm,0,,"Asia/Tokyo"
"P911",,"山城小学校","",35.626721,138.578901,,http://yamanashikotsu.co.jp/jikoku/942.htm,0,,"Asia/Tokyo"
"P915",,"小瀬スポーツ公園正門","",35.625628,138.587814,,http://yamanashikotsu.co.jp/jikoku/339.htm,0,,"Asia/Tokyo"
"P916",,"陸上競技場入口","",35.622219,138.591194,,http://yamanashikotsu.co.jp/jikoku/986.htm,0,,"Asia/Tokyo"
"P917",,"小瀬スポーツ公園","",35.620156,138.585749,,http://yamanashikotsu.co.jp/jikoku/339.htm,0,,"Asia/Tokyo"
"P910",,"山城小学校","",35.626721,138.578611,,http://yamanashikotsu.co.jp/jikoku/942.htm,0,,"Asia/Tokyo"
"P914",,"甲府商業高校","",35.627935,138.573250,,http://yamanashikotsu.co.jp/jikoku/317.htm,0,,"Asia/Tokyo"
"P253",,"中小河原","",35.631920,138.571088,,http://yamanashikotsu.co.jp/jikoku/639.htm,0,,"Asia/Tokyo"
"P254",,"甲斐住吉駅","",35.636535,138.570583,,http://yamanashikotsu.co.jp/jikoku/175.htm,0,,"Asia/Tokyo"
"P141",,"商工会議所","",35.657963,138.568896,,http://yamanashikotsu.co.jp/jikoku/461.htm,0,,"Asia/Tokyo"
"P269",,"住吉五丁目","",35.637566,138.575301,,http://yamanashikotsu.co.jp/jikoku/504.htm,0,,"Asia/Tokyo"
"P920",,"日吉神社","",35.634604,138.577056,,http://yamanashikotsu.co.jp/jikoku/773.htm,0,,"Asia/Tokyo"
"P918",,"山城郵便局","",35.629217,138.578678,,http://yamanashikotsu.co.jp/jikoku/943.htm,0,,"Asia/Tokyo"
"P912",,"山城小学校","",35.626660,138.579504,,http://yamanashikotsu.co.jp/jikoku/942.htm,0,,"Asia/Tokyo"
"P909",,"下鍛冶屋","",35.621591,138.582152,,http://yamanashikotsu.co.jp/jikoku/430.htm,0,,"Asia/Tokyo"
"P907",,"落合","",35.615880,138.584670,,http://yamanashikotsu.co.jp/jikoku/166.htm,0,,"Asia/Tokyo"
"P908",,"落合下","",35.611778,138.587290,,http://yamanashikotsu.co.jp/jikoku/167.htm,0,,"Asia/Tokyo"
"P4905",,"中道橋","",35.605589,138.591287,,http://yamanashikotsu.co.jp/jikoku/663.htm,0,,"Asia/Tokyo"
"P889",,"中村入口","",35.603614,138.590738,,http://yamanashikotsu.co.jp/jikoku/665.htm,0,,"Asia/Tokyo"
"P888",,"宮下","",35.599824,138.590882,,http://yamanashikotsu.co.jp/jikoku/901.htm,0,,"Asia/Tokyo"
"P890",,"間門","",35.595082,138.586296,,http://yamanashikotsu.co.jp/jikoku/832.htm,0,,"Asia/Tokyo"
"P892",,"県立考古博物館","",35.594683,138.582305,,http://yamanashikotsu.co.jp/jikoku/284.htm,0,,"Asia/Tokyo"
"P895",,"銚子塚古墳入口","",35.595148,138.577522,,http://yamanashikotsu.co.jp/jikoku/577.htm,0,,"Asia/Tokyo"
"P896",,"下曽根","",35.593794,138.574125,,http://yamanashikotsu.co.jp/jikoku/439.htm,0,,"Asia/Tokyo"
"P897",,"高部入口","",35.588846,138.561164,,http://yamanashikotsu.co.jp/jikoku/530.htm,0,,"Asia/Tokyo"
"P898",,"浅利橋","",35.587112,138.551529,,http://yamanashikotsu.co.jp/jikoku/40.htm,0,,"Asia/Tokyo"
"P899",,"豊積橋","",35.585982,138.547431,,http://yamanashikotsu.co.jp/jikoku/629.htm,0,,"Asia/Tokyo"
"P900",,"浅利下","",35.583581,138.547927,,http://yamanashikotsu.co.jp/jikoku/39.htm,0,,"Asia/Tokyo"
"P901",,"浅利上","",35.580132,138.548246,,http://yamanashikotsu.co.jp/jikoku/38.htm,0,,"Asia/Tokyo"
"P902",,"作興橋","",35.576194,138.550617,,http://yamanashikotsu.co.jp/jikoku/379.htm,0,,"Asia/Tokyo"
"P903",,"豊富診療所","",35.573182,138.554142,,http://yamanashikotsu.co.jp/jikoku/631.htm,0,,"Asia/Tokyo"
"P904",,"中央市豊富庁舎入口","",35.571183,138.556126,,http://yamanashikotsu.co.jp/jikoku/632.htm,0,,"Asia/Tokyo"
"P905",,"木原","",35.568949,138.558382,,http://yamanashikotsu.co.jp/jikoku/248.htm,0,,"Asia/Tokyo"
"P906",,"豊富","",35.567007,138.562708,,http://yamanashikotsu.co.jp/jikoku/630.htm,0,,"Asia/Tokyo"
"P894",,"銚子塚古墳入口","",35.594879,138.579821,,http://yamanashikotsu.co.jp/jikoku/577.htm,0,,"Asia/Tokyo"
"P893",,"県立考古博物館","",35.594794,138.582299,,http://yamanashikotsu.co.jp/jikoku/284.htm,0,,"Asia/Tokyo"
"P919",,"山城郵便局","",35.629282,138.578611,,http://yamanashikotsu.co.jp/jikoku/943.htm,0,,"Asia/Tokyo"
"P921",,"日吉神社","",35.633405,138.577276,,http://yamanashikotsu.co.jp/jikoku/773.htm,0,,"Asia/Tokyo"
"P268",,"住吉五丁目","",35.637813,138.575060,,http://yamanashikotsu.co.jp/jikoku/504.htm,0,,"Asia/Tokyo"
"P140",,"商工会議所","",35.657865,138.569468,,http://yamanashikotsu.co.jp/jikoku/461.htm,0,,"Asia/Tokyo"
"P886",,"中道橋","",35.608800,138.592642,,http://yamanashikotsu.co.jp/jikoku/663.htm,0,,"Asia/Tokyo"
"P885",,"坂下","",35.610357,138.600388,,http://yamanashikotsu.co.jp/jikoku/376.htm,0,,"Asia/Tokyo"
"P884",,"白井","",35.608420,138.604154,,http://yamanashikotsu.co.jp/jikoku/477.htm,0,,"Asia/Tokyo"
"P1178",,"境川橋","",35.605380,138.609014,,http://yamanashikotsu.co.jp/jikoku/373.htm,0,,"Asia/Tokyo"
"P883",,"三椚","",35.604270,138.613290,,http://yamanashikotsu.co.jp/jikoku/872.htm,0,,"Asia/Tokyo"
"P874",,"境川スポーツ広場","",35.603950,138.615749,,http://yamanashikotsu.co.jp/jikoku/372.htm,0,,"Asia/Tokyo"
"P876",,"石橋","",35.603690,138.618823,,http://yamanashikotsu.co.jp/jikoku/75.htm,0,,"Asia/Tokyo"
"P877",,"下小山","",35.604024,138.622425,,http://yamanashikotsu.co.jp/jikoku/437.htm,0,,"Asia/Tokyo"
"P878",,"小山","",35.606314,138.625759,,http://yamanashikotsu.co.jp/jikoku/359.htm,0,,"Asia/Tokyo"
"P880",,"御所","",35.608994,138.631378,,http://yamanashikotsu.co.jp/jikoku/337.htm,0,,"Asia/Tokyo"
"P882",,"御所農協","",35.611114,138.633631,,http://yamanashikotsu.co.jp/jikoku/338.htm,0,,"Asia/Tokyo"
"P873",,"永井","",35.612758,138.636507,,http://yamanashikotsu.co.jp/jikoku/636.htm,0,,"Asia/Tokyo"
"P872",,"八代局入口","",35.614988,138.637920,,http://yamanashikotsu.co.jp/jikoku/928.htm,0,,"Asia/Tokyo"
"P832",,"八代四ツ角","",35.616944,138.638881,,http://yamanashikotsu.co.jp/jikoku/931.htm,0,,"Asia/Tokyo"
"P871",,"北八代","",35.621412,138.640672,,http://yamanashikotsu.co.jp/jikoku/247.htm,0,,"Asia/Tokyo"
"P870",,"大庭","",35.625077,138.641686,,http://yamanashikotsu.co.jp/jikoku/978.htm,0,,"Asia/Tokyo"
"P869",,"下田","",35.631351,138.637580,,http://yamanashikotsu.co.jp/jikoku/440.htm,0,,"Asia/Tokyo"
"P868",,"日の出町","",35.636625,138.637464,,http://yamanashikotsu.co.jp/jikoku/769.htm,0,,"Asia/Tokyo"
"P867",,"笛吹高校","",35.646455,138.643116,,http://yamanashikotsu.co.jp/jikoku/73.htm,0,,"Asia/Tokyo"
"P111",,"鵜飼山","",35.650076,138.639884,,http://yamanashikotsu.co.jp/jikoku/102.htm,0,,"Asia/Tokyo"
"P4394",,"石和八幡宮","",35.650150,138.636864,,http://yamanashikotsu.co.jp/jikoku/72.htm,0,,"Asia/Tokyo"
"P314",,"甲運橋","",35.650815,138.633621,,http://yamanashikotsu.co.jp/jikoku/294.htm,0,,"Asia/Tokyo"
"P316",,"平等橋","",35.651636,138.629158,,http://yamanashikotsu.co.jp/jikoku/772.htm,0,,"Asia/Tokyo"
"P317",,"山梨県青少年センター","",35.652318,138.625614,,http://yamanashikotsu.co.jp/jikoku/256.htm,0,,"Asia/Tokyo"
"P319",,"甲運小学校入口","",35.652709,138.622634,,http://yamanashikotsu.co.jp/jikoku/293.htm,0,,"Asia/Tokyo"
"P1170",,"和戸","",35.653160,138.619571,,http://yamanashikotsu.co.jp/jikoku/1008.htm,0,,"Asia/Tokyo"
"P1168",,"山梨英和大学入口","",35.653587,138.616594,,http://yamanashikotsu.co.jp/jikoku/116.htm,0,,"Asia/Tokyo"
"P866",,"中央自動車教習所","",35.654457,138.610881,,http://yamanashikotsu.co.jp/jikoku/569.htm,0,,"Asia/Tokyo"
"P864",,"甲運松原","",35.654729,138.609374,,http://yamanashikotsu.co.jp/jikoku/296.htm,0,,"Asia/Tokyo"
"P861",,"山崎","",35.656573,138.605154,,http://yamanashikotsu.co.jp/jikoku/941.htm,0,,"Asia/Tokyo"
"P859",,"山梨学院大学","",35.657885,138.600943,,http://yamanashikotsu.co.jp/jikoku/947.htm,0,,"Asia/Tokyo"
"P858",,"酒折駅入口","",35.658146,138.599189,,http://yamanashikotsu.co.jp/jikoku/374.htm,0,,"Asia/Tokyo"
"P856",,"酒折宮前","",35.658715,138.594785,,http://yamanashikotsu.co.jp/jikoku/375.htm,0,,"Asia/Tokyo"
"P849",,"善光寺入口","",35.659175,138.590418,,http://yamanashikotsu.co.jp/jikoku/515.htm,0,,"Asia/Tokyo"
"P850",,"甲府市障害者センター入口","",35.659491,138.586588,,http://yamanashikotsu.co.jp/jikoku/313.htm,0,,"Asia/Tokyo"
"P853",,"城東三丁目","",35.660230,138.583075,,http://yamanashikotsu.co.jp/jikoku/467.htm,0,,"Asia/Tokyo"
"P1160",,"甲府市立図書館入口","",35.660779,138.580427,,http://yamanashikotsu.co.jp/jikoku/321.htm,0,,"Asia/Tokyo"
"P1158",,"城東一丁目","",35.660373,138.578941,,http://yamanashikotsu.co.jp/jikoku/466.htm,0,,"Asia/Tokyo"
"P1156",,"中央三丁目","",35.660138,138.576238,,http://yamanashikotsu.co.jp/jikoku/568.htm,0,,"Asia/Tokyo"
"P313",,"NTT甲府ビル","",35.660657,138.573201,,http://yamanashikotsu.co.jp/jikoku/117.htm,0,,"Asia/Tokyo"
"P131",,"甲府警察署","",35.661544,138.568014,,http://yamanashikotsu.co.jp/jikoku/312.htm,0,,"Asia/Tokyo"
"P409",,"荒川団地","",35.677004,138.534811,,http://yamanashikotsu.co.jp/jikoku/1034.htm,0,,"Asia/Tokyo"
"P408",,"荒川一丁目","",35.673877,138.541471,,http://yamanashikotsu.co.jp/jikoku/1035.htm,0,,"Asia/Tokyo"
"P406",,"県立大学看護学部","",35.670500,138.544743,,http://yamanashikotsu.co.jp/jikoku/1036.htm,0,,"Asia/Tokyo"
"P407",,"県立大学看護学部","",35.670406,138.544156,,http://yamanashikotsu.co.jp/jikoku/1036.htm,0,,"Asia/Tokyo"
"P290",,"甲府市総合市民会館","",35.653086,138.575191,,http://yamanashikotsu.co.jp/jikoku/312.htm,0,,"Asia/Tokyo"
"P280",,"湯田二丁目","",35.647353,138.579424,,http://yamanashikotsu.co.jp/jikoku/971.htm,0,,"Asia/Tokyo"
"P814",,"青葉町","",35.646837,138.582326,,http://yamanashikotsu.co.jp/jikoku/15.htm,0,,"Asia/Tokyo"
"P815",,"青葉町東","",35.645285,138.584984,,http://yamanashikotsu.co.jp/jikoku/15.htm,0,,"Asia/Tokyo"
"P816",,"山梨自治会館前","",35.643936,138.587683,,http://yamanashikotsu.co.jp/jikoku/956.htm,0,,"Asia/Tokyo"
"P817",,"蓬沢一丁目","",35.642218,138.592165,,http://yamanashikotsu.co.jp/jikoku/985.htm,0,,"Asia/Tokyo"
"P818",,"西高橋","",35.639456,138.599144,,http://yamanashikotsu.co.jp/jikoku/691.htm,0,,"Asia/Tokyo"
"P819",,"大黒橋","",35.636357,138.601509,,http://yamanashikotsu.co.jp/jikoku/525.htm,0,,"Asia/Tokyo"
"P820",,"東高橋","",35.633431,138.608993,,http://yamanashikotsu.co.jp/jikoku/757.htm,0,,"Asia/Tokyo"
"P821",,"富士見農協","",35.630399,138.612150,,http://yamanashikotsu.co.jp/jikoku/1017.htm,0,,"Asia/Tokyo"
"P822",,"河内","",35.629003,138.613858,,http://yamanashikotsu.co.jp/jikoku/303.htm,0,,"Asia/Tokyo"
"P823",,"小石和","",35.628070,138.618498,,http://yamanashikotsu.co.jp/jikoku/291.htm,0,,"Asia/Tokyo"
"P824",,"小石和集荷場前","",35.627477,138.621098,,http://yamanashikotsu.co.jp/jikoku/292.htm,0,,"Asia/Tokyo"
"P825",,"大間田","",35.624486,138.626027,,http://yamanashikotsu.co.jp/jikoku/156.htm,0,,"Asia/Tokyo"
"P826",,"八代南中央","",35.621990,138.630869,,http://yamanashikotsu.co.jp/jikoku/930.htm,0,,"Asia/Tokyo"
"P827",,"中央道八代停留所","",35.620553,138.633725,,http://yamanashikotsu.co.jp/jikoku/571.htm,0,,"Asia/Tokyo"
"P829",,"県営八代団地","",35.619687,138.635421,,http://yamanashikotsu.co.jp/jikoku/276.htm,0,,"Asia/Tokyo"
"P830",,"八代四ツ角","",35.617877,138.638878,,http://yamanashikotsu.co.jp/jikoku/931.htm,0,,"Asia/Tokyo"
"P834",,"笛吹市役所八代支所","",35.616578,138.641919,,http://yamanashikotsu.co.jp/jikoku/929.htm,0,,"Asia/Tokyo"
"P836",,"森の上","",35.614182,138.646254,,http://yamanashikotsu.co.jp/jikoku/922.htm,0,,"Asia/Tokyo"
"P837",,"下高家","",35.612073,138.651085,,http://yamanashikotsu.co.jp/jikoku/435.htm,0,,"Asia/Tokyo"
"P838",,"高家岡入口","",35.610438,138.652828,,http://yamanashikotsu.co.jp/jikoku/297.htm,0,,"Asia/Tokyo"
"P839",,"辻","",35.608098,138.654555,,http://yamanashikotsu.co.jp/jikoku/592.htm,0,,"Asia/Tokyo"
"P840",,"下之川","",35.605328,138.656688,,http://yamanashikotsu.co.jp/jikoku/444.htm,0,,"Asia/Tokyo"
"P842",,"竹居","",35.602166,138.658300,,http://yamanashikotsu.co.jp/jikoku/3062-1.htm,0,,"Asia/Tokyo"
"P843",,"門林下","",35.599298,138.660274,,http://yamanashikotsu.co.jp/jikoku/194.htm,0,,"Asia/Tokyo"
"P844",,"門林","",35.597015,138.664351,,http://yamanashikotsu.co.jp/jikoku/193.htm,0,,"Asia/Tokyo"
"P845",,"奈良原","",35.591719,138.669305,,http://yamanashikotsu.co.jp/jikoku/3065-1.htm,0,,"Asia/Tokyo"
"P835",,"笛吹市役所八代支所","",35.616157,138.642925,,http://yamanashikotsu.co.jp/jikoku/929.htm,0,,"Asia/Tokyo"
"P833",,"八代四ツ角","",35.617134,138.640012,,http://yamanashikotsu.co.jp/jikoku/931.htm,0,,"Asia/Tokyo"
"P828",,"県営八代団地","",35.619807,138.635184,,http://yamanashikotsu.co.jp/jikoku/276.htm,0,,"Asia/Tokyo"
"P279",,"湯田二丁目","",35.647441,138.578536,,http://yamanashikotsu.co.jp/jikoku/971.htm,0,,"Asia/Tokyo"
"P291",,"甲府市総合市民会館","",35.652983,138.575264,,http://yamanashikotsu.co.jp/jikoku/312.htm,0,,"Asia/Tokyo"
"P292",,"若松町南","",35.653530,138.571715,,http://yamanashikotsu.co.jp/jikoku/999.htm,0,,"Asia/Tokyo"
"P1155",,"中央三丁目","",35.660382,138.574993,,http://yamanashikotsu.co.jp/jikoku/568.htm,0,,"Asia/Tokyo"
"P1157",,"城東一丁目","",35.659894,138.577992,,http://yamanashikotsu.co.jp/jikoku/466.htm,0,,"Asia/Tokyo"
"P1159",,"甲府市立図書館入口","",35.660910,138.580030,,http://yamanashikotsu.co.jp/jikoku/321.htm,0,,"Asia/Tokyo"
"P852",,"城東三丁目","",35.660288,138.583085,,http://yamanashikotsu.co.jp/jikoku/467.htm,0,,"Asia/Tokyo"
"P1164",,"甲府市障害者センター入口","",35.659659,138.586221,,http://yamanashikotsu.co.jp/jikoku/313.htm,0,,"Asia/Tokyo"
"P848",,"善光寺入口","",35.659371,138.589759,,http://yamanashikotsu.co.jp/jikoku/515.htm,0,,"Asia/Tokyo"
"P855",,"酒折宮前","",35.658791,138.594455,,http://yamanashikotsu.co.jp/jikoku/375.htm,0,,"Asia/Tokyo"
"P857",,"酒折駅入口","",35.658458,138.597416,,http://yamanashikotsu.co.jp/jikoku/374.htm,0,,"Asia/Tokyo"
"P860",,"山梨学院大学","",35.657821,138.601802,,http://yamanashikotsu.co.jp/jikoku/947.htm,0,,"Asia/Tokyo"
"P862",,"山崎","",35.656063,138.606394,,http://yamanashikotsu.co.jp/jikoku/941.htm,0,,"Asia/Tokyo"
"P863",,"甲運松原","",35.654914,138.608883,,http://yamanashikotsu.co.jp/jikoku/296.htm,0,,"Asia/Tokyo"
"P1167",,"山梨英和大学入口","",35.653770,138.615564,,http://yamanashikotsu.co.jp/jikoku/116.htm,0,,"Asia/Tokyo"
"P1169",,"和戸","",35.653282,138.619121,,http://yamanashikotsu.co.jp/jikoku/1008.htm,0,,"Asia/Tokyo"
"P315",,"甲運橋","",35.651283,138.633076,,http://yamanashikotsu.co.jp/jikoku/294.htm,0,,"Asia/Tokyo"
"P4393",,"石和八幡宮","",35.650307,138.636660,,http://yamanashikotsu.co.jp/jikoku/72.htm,0,,"Asia/Tokyo"
"P110",,"鵜飼山","",35.650084,138.639543,,http://yamanashikotsu.co.jp/jikoku/102.htm,0,,"Asia/Tokyo"
"P831",,"八代四ツ角","",35.618272,138.639556,,http://yamanashikotsu.co.jp/jikoku/931.htm,0,,"Asia/Tokyo"
"P879",,"御所","",35.609092,138.631515,,http://yamanashikotsu.co.jp/jikoku/337.htm,0,,"Asia/Tokyo"
"P875",,"石橋","",35.603645,138.618646,,http://yamanashikotsu.co.jp/jikoku/75.htm,0,,"Asia/Tokyo"
"P887",,"中道橋","",35.608656,138.592637,,http://yamanashikotsu.co.jp/jikoku/663.htm,0,,"Asia/Tokyo"
"P851",,"甲府市障害者センター入口","",35.659652,138.586213,,http://yamanashikotsu.co.jp/jikoku/313.htm,0,,"Asia/Tokyo"
"P100",,"山梨英和大学","",35.659587,138.614784,,http://yamanashikotsu.co.jp/jikoku/115.htm,0,,"Asia/Tokyo"
"P4388",,"石和温泉駅入口","",35.651274,138.635858,,http://yamanashikotsu.co.jp/jikoku/71.htm,0,,"Asia/Tokyo"
"P105",,"石和温泉駅","",35.657278,138.634870,,http://yamanashikotsu.co.jp/jikoku/70.htm,0,,"Asia/Tokyo"
"P318",,"山梨県青少年センター","",35.652251,138.625539,,http://yamanashikotsu.co.jp/jikoku/256.htm,0,,"Asia/Tokyo"
"P320",,"甲運小学校入口","",35.652778,138.621940,,http://yamanashikotsu.co.jp/jikoku/293.htm,0,,"Asia/Tokyo"
"P865",,"中央自動車教習所","",35.654515,138.610894,,http://yamanashikotsu.co.jp/jikoku/569.htm,0,,"Asia/Tokyo"
"P87",,"愛宕トンネル","",35.669269,138.586752,,http://yamanashikotsu.co.jp/jikoku/1022.htm,0,,"Asia/Tokyo"
"P91",,"かいてらす・善光寺北","",35.667379,138.592519,,,0,,"Asia/Tokyo"
"P89",,"愛宕山こどもの国","",35.672792,138.584831,,http://yamanashikotsu.co.jp/jikoku/43.htm,0,,"Asia/Tokyo"
"P90",,"県立科学館","",35.670365,138.580620,,http://yamanashikotsu.co.jp/jikoku/281.htm,0,,"Asia/Tokyo"
"P88",,"愛宕トンネル","",35.669053,138.586677,,http://yamanashikotsu.co.jp/jikoku/1022.htm,0,,"Asia/Tokyo"
"P349",,"塩部三丁目","",35.676161,138.558505,,http://yamanashikotsu.co.jp/jikoku/2501.htm,0,,"Asia/Tokyo"
"P346",,"甲府工業高校","",35.670676,138.560016,,http://yamanashikotsu.co.jp/jikoku/2503.htm,0,,"Asia/Tokyo"
"P1165",,"中央自動車教習所","",35.654524,138.610892,,http://yamanashikotsu.co.jp/jikoku/569.htm,0,,"Asia/Tokyo"
"P112",,"笛吹高校","",35.646368,138.644017,,http://yamanashikotsu.co.jp/jikoku/73.htm,0,,"Asia/Tokyo"
"P114",,"長塚(笛吹市)","",35.644468,138.648984,,http://yamanashikotsu.co.jp/jikoku/656.htm,0,,"Asia/Tokyo"
"P116",,"山梨県立博物館","",35.641159,138.650497,,http://yamanashikotsu.co.jp/jikoku/2513.htm,0,,"Asia/Tokyo"
"P115",,"長塚(笛吹市)","",35.644241,138.649060,,http://yamanashikotsu.co.jp/jikoku/656.htm,0,,"Asia/Tokyo"
"P113",,"笛吹高校","",35.645867,138.646380,,http://yamanashikotsu.co.jp/jikoku/73.htm,0,,"Asia/Tokyo"
"P106",,"石和温泉駅","",35.657241,138.634885,,http://yamanashikotsu.co.jp/jikoku/70.htm,0,,"Asia/Tokyo"
"P343",,"朝日二丁目","",35.669497,138.564817,,http://yamanashikotsu.co.jp/jikoku/2504.htm,0,,"Asia/Tokyo"
"P345",,"甲府工業高校","",35.670650,138.559404,,http://yamanashikotsu.co.jp/jikoku/2503.htm,0,,"Asia/Tokyo"
"P350",,"塩部三丁目","",35.675716,138.558082,,http://yamanashikotsu.co.jp/jikoku/2501.htm,0,,"Asia/Tokyo"
"P1614",,"塩山駅南口(1番)","",35.704953,138.734123,,http://www.city.koshu.yamanashi.jp/koshu_wdm/html/citizen/57776474354.html,0,,"Asia/Tokyo"
"P1796",,"上於曽","",35.705230,138.730499,,http://www.city.koshu.yamanashi.jp/koshu_wdm/html/citizen/57776474354.html,0,,"Asia/Tokyo"
"P1626",,"菅田神社","",35.704417,138.726109,,http://www.city.koshu.yamanashi.jp/koshu_wdm/html/citizen/57776474354.html,0,,"Asia/Tokyo"
"P1627",,"仲沢","",35.708085,138.725006,,http://www.city.koshu.yamanashi.jp/koshu_wdm/html/citizen/57776474354.html,0,,"Asia/Tokyo"
"P1628",,"向岳寺","",35.708952,138.722783,,http://www.city.koshu.yamanashi.jp/koshu_wdm/html/citizen/57776474354.html,0,,"Asia/Tokyo"
"P1629",,"向岳寺西","",35.711095,138.720913,,http://www.city.koshu.yamanashi.jp/koshu_wdm/html/citizen/57776474354.html,0,,"Asia/Tokyo"
"P1630",,"上井尻中","",35.713316,138.719502,,http://www.city.koshu.yamanashi.jp/koshu_wdm/html/citizen/57776474354.html,0,,"Asia/Tokyo"
"P1631",,"上井尻","",35.715146,138.718424,,http://www.city.koshu.yamanashi.jp/koshu_wdm/html/citizen/57776474354.html,0,,"Asia/Tokyo"
"P1565",,"追手先","",35.719039,138.716335,,http://www.city.koshu.yamanashi.jp/koshu_wdm/html/citizen/57776474354.html,0,,"Asia/Tokyo"
"P1566",,"天王宿","",35.723077,138.714800,,http://www.city.koshu.yamanashi.jp/koshu_wdm/html/citizen/57776474354.html,0,,"Asia/Tokyo"
"P1634",,"恵林寺（山梨交通）","",35.726371,138.714036,,http://www.city.koshu.yamanashi.jp/koshu_wdm/html/citizen/57776474354.html,0,,"Asia/Tokyo"
"P1635",,"放光寺入口","",35.733615,138.711960,,http://www.city.koshu.yamanashi.jp/koshu_wdm/html/citizen/57776474354.html,0,,"Asia/Tokyo"
"P1636",,"諏訪橋","",35.735699,138.712188,,http://www.city.koshu.yamanashi.jp/koshu_wdm/html/citizen/57776474354.html,0,,"Asia/Tokyo"
"P1637",,"窪平（山梨交通）","",35.738529,138.713371,,http://www.city.koshu.yamanashi.jp/koshu_wdm/html/citizen/57776474354.html,0,,"Asia/Tokyo"
"P1638",,"室伏（山梨交通）","",35.751963,138.717429,,http://www.city.koshu.yamanashi.jp/koshu_wdm/html/citizen/57776474354.html,0,,"Asia/Tokyo"
"P1639",,"馬込(山梨交通）","",35.775334,138.738739,,http://www.city.koshu.yamanashi.jp/koshu_wdm/html/citizen/57776474354.html,0,,"Asia/Tokyo"
"P1640",,"乾徳山登山口(山梨交通）","",35.779473,138.733026,,http://www.city.koshu.yamanashi.jp/koshu_wdm/html/citizen/57776474354.html,0,,"Asia/Tokyo"
"P1641",,"市営笛吹の湯（山梨交通）","",35.789508,138.738712,,http://www.city.koshu.yamanashi.jp/koshu_wdm/html/citizen/57776474354.html,0,,"Asia/Tokyo"
"P1642",,"川浦温泉（山梨交通）","",35.799420,138.747432,,http://www.city.koshu.yamanashi.jp/koshu_wdm/html/citizen/57776474354.html,0,,"Asia/Tokyo"
"P4556",,"天科（山梨交通）","",35.809429,138.751477,,,0,,"Asia/Tokyo"
"P1644",,"新地平（山梨交通）","",35.848352,138.760618,,http://www.city.koshu.yamanashi.jp/koshu_wdm/html/citizen/57776474354.html,0,,"Asia/Tokyo"
"P1645",,"西沢渓谷入口（山梨交通）","",35.862587,138.755369,,http://www.city.koshu.yamanashi.jp/koshu_wdm/html/citizen/57776474354.html,0,,"Asia/Tokyo"
"P1604",,"甲州市役所（山梨交通）","",35.704944,138.729735,,http://www.city.koshu.yamanashi.jp/koshu_wdm/html/citizen/57776474354.html,0,,"Asia/Tokyo"
"P1633",,"天王宿","",35.722262,138.714672,,http://www.city.koshu.yamanashi.jp/koshu_wdm/html/citizen/57776474354.html,0,,"Asia/Tokyo"
"P1795",,"塩山駅南口(2番)","",35.705031,138.734367,,http://www.city.koshu.yamanashi.jp/koshu_wdm/html/citizen/57776474354.html,0,,"Asia/Tokyo"
"P4325",,"塩山高校（山梨交通）","",35.718533,138.727010,,,0,,"Asia/Tokyo"
"P4945",,"塩山営業所","",35.701258,138.730256,,,0,,"Asia/Tokyo"
"P4946",,"下於曽","",35.696886,138.727242,,,0,,"Asia/Tokyo"
"P4947",,"熊野神社","",35.691193,138.725330,,,0,,"Asia/Tokyo"
"P4948",,"熊野橋西","",35.687296,138.725831,,,0,,"Asia/Tokyo"
"P4949",,"山区","",35.680956,138.725601,,,0,,"Asia/Tokyo"
"P4973",,"小佐手（山梨交通）","",35.676381,138.725936,,,0,,"Asia/Tokyo"
"P4950",,"小佐手交差点南","",35.671405,138.726560,,,0,,"Asia/Tokyo"
"P4951",,"勝沼病院","",35.669523,138.726270,,,0,,"Asia/Tokyo"
"P4952",,"甲州市勝沼支所","",35.665315,138.723847,,,0,,"Asia/Tokyo"
"P4953",,"諏訪神社","",35.665326,138.718808,,,0,,"Asia/Tokyo"
"P4954",,"等々力四ツ角","",35.666172,138.713765,,,0,,"Asia/Tokyo"
"P4955",,"等々力下","",35.665780,138.711770,,,0,,"Asia/Tokyo"
"P4956",,"矢作橋","",35.664231,138.704273,,,0,,"Asia/Tokyo"
"P4957",,"下栗原","",35.664671,138.694090,,,0,,"Asia/Tokyo"
"P4958",,"日川小学校","",35.662914,138.689523,,,0,,"Asia/Tokyo"
"P4959",,"歌田","",35.662135,138.686622,,,0,,"Asia/Tokyo"
"P4960",,"日川高校","",35.662277,138.683380,,,0,,"Asia/Tokyo"
"P4961",,"一丁田中","",35.662932,138.679819,,,0,,"Asia/Tokyo"
"P4962",,"金田","",35.656880,138.677758,,,0,,"Asia/Tokyo"
"P4963",,"七五三石","",35.651414,138.678533,,,0,,"Asia/Tokyo"
"P4964",,"竹原田","",35.651639,138.672552,,,0,,"Asia/Tokyo"
"P4965",,"坪井共撰所","",35.652607,138.669767,,,0,,"Asia/Tokyo"
"P4966",,"坪井","",35.653409,138.667034,,,0,,"Asia/Tokyo"
"P4967",,"一宮温泉病院","",35.654572,138.664005,,,0,,"Asia/Tokyo"
"P4968",,"笛吹橋西","",35.657094,138.656678,,,0,,"Asia/Tokyo"
"P4969",,"中島入口","",35.653633,138.649945,,,0,,"Asia/Tokyo"
"P4970",,"八田入口","",35.652183,138.647331,,,0,,"Asia/Tokyo"
"P4971",,"笛吹高校入口","",35.648880,138.641421,,,0,,"Asia/Tokyo"
"P1166",,"中央自動車教習所","",35.654215,138.612152,,http://yamanashikotsu.co.jp/jikoku/569.htm,0,,"Asia/Tokyo"
"P4972",,"笛吹高校入口","",35.649048,138.641463,,,0,,"Asia/Tokyo"
"P204",,"穴観音入口","",35.708518,138.448747,,http://yamanashikotsu.co.jp/jikoku/town/47.htm,0,,"Asia/Tokyo"
"P205",,"韮崎市役所","",35.709827,138.446944,,http://yamanashikotsu.co.jp/jikoku/town/711.htm,0,,"Asia/Tokyo"
"P206",,"青坂入口","",35.712127,138.444222,,http://yamanashikotsu.co.jp/jikoku/town/8.htm,0,,"Asia/Tokyo"
"P207",,"青坂","",35.714009,138.440121,,http://yamanashikotsu.co.jp/jikoku/town/7.htm,0,,"Asia/Tokyo"
"P210",,"一ツ谷","",35.718645,138.435086,,http://yamanashikotsu.co.jp/jikoku/town/766.htm,0,,"Asia/Tokyo"
"P211",,"祖母石住宅","",35.721740,138.431186,,http://yamanashikotsu.co.jp/jikoku/town/112.htm,0,,"Asia/Tokyo"
"P212",,"祖母石下","",35.726354,138.424827,,http://yamanashikotsu.co.jp/jikoku/town/111.htm,0,,"Asia/Tokyo"
"P213",,"祖母石中","",35.731725,138.420407,,http://yamanashikotsu.co.jp/jikoku/town/113.htm,0,,"Asia/Tokyo"
"P215",,"祖母石上","",35.734608,138.418419,,http://yamanashikotsu.co.jp/jikoku/town/110.htm,0,,"Asia/Tokyo"
"P216",,"入戸野入口","",35.747464,138.410751,,http://yamanashikotsu.co.jp/jikoku/town/701.htm,0,,"Asia/Tokyo"
"P218",,"穴山三ツ石","",35.750933,138.408895,,http://yamanashikotsu.co.jp/jikoku/town/50.htm,0,,"Asia/Tokyo"
"P219",,"穴山三軒屋","",35.752812,138.407875,,http://yamanashikotsu.co.jp/jikoku/town/48.htm,0,,"Asia/Tokyo"
"P221",,"上新田","",35.758580,138.406513,,http://yamanashikotsu.co.jp/jikoku/town/218.htm,0,,"Asia/Tokyo"
"P223",,"穴山橋","",35.761249,138.401315,,http://yamanashikotsu.co.jp/jikoku/town/49.htm,0,,"Asia/Tokyo"
"P225",,"円野中","",35.766563,138.396353,,http://yamanashikotsu.co.jp/jikoku/town/857.htm,0,,"Asia/Tokyo"
"P227",,"円野上","",35.770170,138.393968,,http://yamanashikotsu.co.jp/jikoku/town/856.htm,0,,"Asia/Tokyo"
"P229",,"宮の脇","",35.775242,138.392195,,http://yamanashikotsu.co.jp/jikoku/town/902.htm,0,,"Asia/Tokyo"
"P231",,"牧の原下","",35.782008,138.388118,,http://yamanashikotsu.co.jp/jikoku/town/836.htm,0,,"Asia/Tokyo"
"P1112",,"牧の原中","",35.783487,138.385425,,http://yamanashikotsu.co.jp/jikoku/town/837.htm,0,,"Asia/Tokyo"
"P1005",,"牧の原","",35.785152,138.382373,,http://yamanashikotsu.co.jp/jikoku/town/834.htm,0,,"Asia/Tokyo"
"P1001",,"下三吹","",35.787958,138.378806,,http://yamanashikotsu.co.jp/jikoku/town/445.htm,0,,"Asia/Tokyo"
"P4051",,"上三吹下","",35.792949,138.372889,,,0,,"Asia/Tokyo"
"P995",,"上三吹","",35.796661,138.363753,,http://yamanashikotsu.co.jp/jikoku/town/224.htm,0,,"Asia/Tokyo"
"P993",,"花水坂","",35.801900,138.355728,,http://yamanashikotsu.co.jp/jikoku/town/733.htm,0,,"Asia/Tokyo"
"P992",,"台ヶ原下","",35.806494,138.348609,,http://yamanashikotsu.co.jp/jikoku/town/523.htm,0,,"Asia/Tokyo"
"P991",,"台ヶ原中","",35.806907,138.346176,,http://yamanashikotsu.co.jp/jikoku/town/524.htm,0,,"Asia/Tokyo"
"P990",,"台ヶ原上","",35.807558,138.340930,,http://yamanashikotsu.co.jp/jikoku/town/522.htm,0,,"Asia/Tokyo"
"P989",,"白須下","",35.808251,138.337805,,http://yamanashikotsu.co.jp/jikoku/town/481.htm,0,,"Asia/Tokyo"
"P987",,"白須","",35.809072,138.333862,,http://yamanashikotsu.co.jp/jikoku/town/480.htm,0,,"Asia/Tokyo"
"P985",,"道の駅はくしゅう","",35.811090,138.331371,,http://yamanashikotsu.co.jp/jikoku/town/482.htm,0,,"Asia/Tokyo"
"P1120",,"前沢","",35.819649,138.319303,,http://yamanashikotsu.co.jp/jikoku/town/828.htm,0,,"Asia/Tokyo"
"P1121",,"県営白州団地入口","",35.825068,138.314132,,http://yamanashikotsu.co.jp/jikoku/town/829.htm,0,,"Asia/Tokyo"
"P1122",,"松原下","",35.828096,138.310018,,http://yamanashikotsu.co.jp/jikoku/town/848.htm,0,,"Asia/Tokyo"
"P1123",,"松原上","",35.830357,138.307620,,http://yamanashikotsu.co.jp/jikoku/town/847.htm,0,,"Asia/Tokyo"
"P2332",,"荒田","",35.835020,138.305383,,http://yamanashikotsu.co.jp/jikoku/town/58.htm,0,,"Asia/Tokyo"
"P1124",,"下教来石下","",35.838577,138.303494,,http://yamanashikotsu.co.jp/jikoku/town/433.htm,0,,"Asia/Tokyo"
"P986",,"道の駅はくしゅう","",35.810879,138.331647,,http://yamanashikotsu.co.jp/jikoku/town/482.htm,0,,"Asia/Tokyo"
"P988",,"白須","",35.809061,138.334050,,http://yamanashikotsu.co.jp/jikoku/town/480.htm,0,,"Asia/Tokyo"
"P994",,"上三吹","",35.796816,138.363587,,http://yamanashikotsu.co.jp/jikoku/town/224.htm,0,,"Asia/Tokyo"
"P1004",,"牧の原","",35.785363,138.382091,,http://yamanashikotsu.co.jp/jikoku/town/834.htm,0,,"Asia/Tokyo"
"P1111",,"牧の原中","",35.783816,138.384967,,http://yamanashikotsu.co.jp/jikoku/town/837.htm,0,,"Asia/Tokyo"
"P232",,"牧の原下","",35.781953,138.388416,,http://yamanashikotsu.co.jp/jikoku/town/836.htm,0,,"Asia/Tokyo"
"P230",,"宮の脇","",35.774742,138.392479,,http://yamanashikotsu.co.jp/jikoku/town/902.htm,0,,"Asia/Tokyo"
"P228",,"円野上","",35.769776,138.394285,,http://yamanashikotsu.co.jp/jikoku/town/856.htm,0,,"Asia/Tokyo"
"P226",,"円野中","",35.766785,138.396272,,http://yamanashikotsu.co.jp/jikoku/town/857.htm,0,,"Asia/Tokyo"
"P222",,"穴山橋","",35.761736,138.401138,,http://yamanashikotsu.co.jp/jikoku/town/49.htm,0,,"Asia/Tokyo"
"P220",,"上新田","",35.757979,138.406636,,http://yamanashikotsu.co.jp/jikoku/town/218.htm,0,,"Asia/Tokyo"
"P217",,"入戸野入口","",35.747788,138.410678,,http://yamanashikotsu.co.jp/jikoku/town/701.htm,0,,"Asia/Tokyo"
"P214",,"祖母石中","",35.731651,138.420605,,http://yamanashikotsu.co.jp/jikoku/town/113.htm,0,,"Asia/Tokyo"
"P209",,"一ツ谷","",35.718356,138.435494,,http://yamanashikotsu.co.jp/jikoku/town/766.htm,0,,"Asia/Tokyo"
"P208",,"青坂","",35.715174,138.438632,,http://yamanashikotsu.co.jp/jikoku/town/7.htm,0,,"Asia/Tokyo"
"P2336",,"身延駅","",35.361624,138.452733,,http://yamanashikotsu.co.jp/jikoku/town/887.htm,0,"S1711","Asia/Tokyo"
"P2337",,"しょうにん会館","",35.362884,138.452625,,http://yamanashikotsu.co.jp/jikoku/town/474.htm,0,,"Asia/Tokyo"
"P2338",,"身延橋南","",35.364144,138.452926,,http://yamanashikotsu.co.jp/jikoku/town/890.htm,0,,"Asia/Tokyo"
"P2339",,"大野","",35.365473,138.449042,,http://yamanashikotsu.co.jp/jikoku/town/153.htm,0,,"Asia/Tokyo"
"P2340",,"隧道北口","",35.368413,138.447239,,http://yamanashikotsu.co.jp/jikoku/town/497.htm,0,,"Asia/Tokyo"
"P2341",,"身延支所入口","",35.370145,138.443871,,http://yamanashikotsu.co.jp/jikoku/town/894.htm,0,,"Asia/Tokyo"
"P2403",,"JAふじかわ支所","",35.370460,138.439965,,http://yamanashikotsu.co.jp/jikoku/town/896.htm,0,,"Asia/Tokyo"
"P2404",,"身延高校","",35.370793,138.437390,,http://yamanashikotsu.co.jp/jikoku/town/888.htm,0,,"Asia/Tokyo"
"P2405",,"身延小学校","",35.371143,138.435051,,http://yamanashikotsu.co.jp/jikoku/town/895.htm,0,,"Asia/Tokyo"
"P2406",,"身延駐在所","",35.371055,138.432927,,http://yamanashikotsu.co.jp/jikoku/town/892.htm,0,,"Asia/Tokyo"
"P2407",,"通学橋","",35.370758,138.431425,,http://yamanashikotsu.co.jp/jikoku/town/584.htm,0,,"Asia/Tokyo"
"P2408",,"鏡円坊","",35.368763,138.429515,,http://yamanashikotsu.co.jp/jikoku/town/250.htm,0,,"Asia/Tokyo"
"P2409",,"総門","",35.368833,138.426554,,http://yamanashikotsu.co.jp/jikoku/town/521.htm,0,,"Asia/Tokyo"
"P2411",,"元町","",35.370863,138.425674,,http://yamanashikotsu.co.jp/jikoku/town/618.htm,0,,"Asia/Tokyo"
"P2412",,"香雲橋","",35.372805,138.425245,,http://yamanashikotsu.co.jp/jikoku/town/295.htm,0,,"Asia/Tokyo"
"P2413",,"橘町","",35.374904,138.425267,,http://yamanashikotsu.co.jp/jikoku/town/543.htm,0,,"Asia/Tokyo"
"P2414",,"身延山","",35.376322,138.425310,,http://yamanashikotsu.co.jp/jikoku/town/889.htm,0,,"Asia/Tokyo"
"P1037",,"韮崎高校","",35.714338,138.448079,,http://yamanashikotsu.co.jp/jikoku/town/707.htm,0,,"Asia/Tokyo"
"P1039",,"韮崎東中","",35.717883,138.448827,,http://yamanashikotsu.co.jp/jikoku/town/714.htm,0,,"Asia/Tokyo"
"P1042",,"雇用促進住宅入口","",35.721829,138.447521,,http://yamanashikotsu.co.jp/jikoku/town/360.htm,0,,"Asia/Tokyo"
"P1044",,"文化ホール入口","",35.726968,138.446773,,http://yamanashikotsu.co.jp/jikoku/town/805.htm,0,,"Asia/Tokyo"
"P1045",,"絵見堂","",35.728642,138.447580,,http://yamanashikotsu.co.jp/jikoku/town/122.htm,0,,"Asia/Tokyo"
"P1050",,"鳥居","",35.734064,138.446295,,http://yamanashikotsu.co.jp/jikoku/town/633.htm,0,,"Asia/Tokyo"
"P1054",,"明野三之蔵","",35.745409,138.448202,,http://yamanashikotsu.co.jp/jikoku/town/18.htm,0,,"Asia/Tokyo"
"P1055",,"厚芝入口","",35.747516,138.448476,,http://yamanashikotsu.co.jp/jikoku/town/44.htm,0,,"Asia/Tokyo"
"P1056",,"厚芝上","",35.749993,138.448106,,http://yamanashikotsu.co.jp/jikoku/town/45.htm,0,,"Asia/Tokyo"
"P1057",,"明野保育所","",35.752041,138.448307,,http://yamanashikotsu.co.jp/jikoku/town/19.htm,0,,"Asia/Tokyo"
"P1058",,"大内","",35.755193,138.449600,,http://yamanashikotsu.co.jp/jikoku/town/150.htm,0,,"Asia/Tokyo"
"P1854",,"上手一本松","",35.759076,138.447207,,,0,,"Asia/Tokyo"
"P1060",,"辺見","",35.763978,138.443645,,http://yamanashikotsu.co.jp/jikoku/town/806.htm,0,,"Asia/Tokyo"
"P1873",,"谷井","",35.767129,138.441762,,,0,,"Asia/Tokyo"
"P1919",,"明野総合支所","",35.769941,138.440153,,http://yamanashikotsu.co.jp/jikoku/town/20.htm,0,,"Asia/Tokyo"
"P1063",,"浄居寺","",35.775704,138.439740,,http://yamanashikotsu.co.jp/jikoku/town/462.htm,0,,"Asia/Tokyo"
"P1064",,"浅尾新田下","",35.779335,138.437347,,http://yamanashikotsu.co.jp/jikoku/town/25.htm,0,,"Asia/Tokyo"
"P1065",,"浅尾新田中","",35.782989,138.438031,,http://yamanashikotsu.co.jp/jikoku/town/28.htm,0,,"Asia/Tokyo"
"P1066",,"浅尾新田","",35.785078,138.438697,,http://yamanashikotsu.co.jp/jikoku/town/24.htm,0,,"Asia/Tokyo"
"P1067",,"朝神駐在所","",35.787097,138.439879,,http://yamanashikotsu.co.jp/jikoku/town/27.htm,0,,"Asia/Tokyo"
"P1132",,"浅尾下","",35.792823,138.445888,,http://yamanashikotsu.co.jp/jikoku/town/23.htm,0,,"Asia/Tokyo"
"P1133",,"浅尾中","",35.793667,138.446515,,http://yamanashikotsu.co.jp/jikoku/town/26.htm,0,,"Asia/Tokyo"
"P1134",,"浅尾","",35.795334,138.447577,,http://yamanashikotsu.co.jp/jikoku/town/22.htm,0,,"Asia/Tokyo"
"P1051",,"鳥居","",35.733580,138.446625,,http://yamanashikotsu.co.jp/jikoku/town/633.htm,0,,"Asia/Tokyo"
"P1043",,"文化ホール入口","",35.726839,138.446982,,http://yamanashikotsu.co.jp/jikoku/town/805.htm,0,,"Asia/Tokyo"
"P1041",,"雇用促進住宅入口","",35.721890,138.447588,,http://yamanashikotsu.co.jp/jikoku/town/360.htm,0,,"Asia/Tokyo"
"P1038",,"韮崎東中","",35.717781,138.448865,,http://yamanashikotsu.co.jp/jikoku/town/714.htm,0,,"Asia/Tokyo"
"P1036",,"韮崎高校","",35.713488,138.448511,,http://yamanashikotsu.co.jp/jikoku/town/707.htm,0,,"Asia/Tokyo"
"P1138",,"小池平下","",35.802026,138.451896,,http://yamanashikotsu.co.jp/jikoku/town/290.htm,0,,"Asia/Tokyo"
"P1135",,"小池平上","",35.805358,138.452834,,http://yamanashikotsu.co.jp/jikoku/town/289.htm,0,,"Asia/Tokyo"
"P1136",,"仁田平","",35.807912,138.455265,,http://yamanashikotsu.co.jp/jikoku/town/699.htm,0,,"Asia/Tokyo"
"P2335",,"相垈","",35.720113,138.450415,,http://yamanashikotsu.co.jp/jikoku/town/4.htm,0,,"Asia/Tokyo"
"P1048",,"蔵の前","",35.726504,138.449187,,http://yamanashikotsu.co.jp/jikoku/town/268.htm,0,,"Asia/Tokyo"
"P1046",,"絵見堂","",35.728372,138.448833,,http://yamanashikotsu.co.jp/jikoku/town/122.htm,0,,"Asia/Tokyo"
"P1052",,"駒井","",35.736467,138.445193,,http://yamanashikotsu.co.jp/jikoku/town/350.htm,0,,"Asia/Tokyo"
"P1069",,"下木戸","",35.741930,138.442613,,http://yamanashikotsu.co.jp/jikoku/town/432.htm,0,,"Asia/Tokyo"
"P1070",,"中条下","",35.744226,138.441301,,http://yamanashikotsu.co.jp/jikoku/town/652.htm,0,,"Asia/Tokyo"
"P1071",,"中条上","",35.745400,138.440472,,http://yamanashikotsu.co.jp/jikoku/town/651.htm,0,,"Asia/Tokyo"
"P1073",,"ゆーぷる韮崎","",35.747879,138.438463,,http://yamanashikotsu.co.jp/jikoku/town/965.htm,0,,"Asia/Tokyo"
"P1076",,"三村橋入口","",35.753284,138.434469,,http://yamanashikotsu.co.jp/jikoku/town/385.htm,0,,"Asia/Tokyo"
"P1077",,"小田川上","",35.759701,138.431693,,http://yamanashikotsu.co.jp/jikoku/town/364.htm,0,,"Asia/Tokyo"
"P1078",,"金比羅神社","",35.761525,138.429977,,http://yamanashikotsu.co.jp/jikoku/town/364.htm,0,,"Asia/Tokyo"
"P2333",,"小田川新田","",35.763592,138.428378,,http://yamanashikotsu.co.jp/jikoku/town/344.htm,0,,"Asia/Tokyo"
"P1127",,"桐の木","",35.765101,138.427155,,http://yamanashikotsu.co.jp/jikoku/town/255.htm,0,,"Asia/Tokyo"
"P1082",,"大豆生田下","",35.772032,138.426138,,http://yamanashikotsu.co.jp/jikoku/town/850.htm,0,,"Asia/Tokyo"
"P1081",,"大豆生田上","",35.775070,138.425589,,http://yamanashikotsu.co.jp/jikoku/town/849.htm,0,,"Asia/Tokyo"
"P1088",,"北杜市役所","",35.776692,138.425731,,http://yamanashikotsu.co.jp/jikoku/town/499.htm,0,,"Asia/Tokyo"
"P1086",,"百観音","",35.779753,138.424848,,http://yamanashikotsu.co.jp/jikoku/town/771.htm,0,,"Asia/Tokyo"
"P1084",,"須玉町総合体育館","",35.780926,138.423118,,http://yamanashikotsu.co.jp/jikoku/town/500.htm,0,,"Asia/Tokyo"
"P1083",,"須玉橋","",35.784312,138.423212,,http://yamanashikotsu.co.jp/jikoku/town/502.htm,0,,"Asia/Tokyo"
"P1090",,"若神子下","",35.787913,138.421251,,http://yamanashikotsu.co.jp/jikoku/town/995.htm,0,,"Asia/Tokyo"
"P1091",,"JA須玉支所","",35.789003,138.421619,,http://yamanashikotsu.co.jp/jikoku/town/1003.htm,0,,"Asia/Tokyo"
"P1092",,"若神子中","",35.790578,138.422174,,http://yamanashikotsu.co.jp/jikoku/town/1002.htm,0,,"Asia/Tokyo"
"P1094",,"若神子古城入口","",35.792651,138.422973,,http://yamanashikotsu.co.jp/jikoku/town/1001.htm,0,,"Asia/Tokyo"
"P1095",,"若神子上","",35.793502,138.424175,,http://yamanashikotsu.co.jp/jikoku/town/1000.htm,0,,"Asia/Tokyo"
"P2334",,"新橋","",35.792699,138.426790,,http://yamanashikotsu.co.jp/jikoku/town/492.htm,0,,"Asia/Tokyo"
"P1032",,"下小倉","",35.794137,138.430985,,http://yamanashikotsu.co.jp/jikoku/town/428.htm,0,,"Asia/Tokyo"
"P1008",,"須玉中学校","",35.796496,138.433834,,http://yamanashikotsu.co.jp/jikoku/town/501.htm,0,,"Asia/Tokyo"
"P1009",,"中尾","",35.801377,138.436637,,http://yamanashikotsu.co.jp/jikoku/town/637.htm,0,,"Asia/Tokyo"
"P1010",,"東向下","",35.809126,138.445118,,http://yamanashikotsu.co.jp/jikoku/town/759.htm,0,,"Asia/Tokyo"
"P1011",,"多麻郵便局","",35.810855,138.448143,,http://yamanashikotsu.co.jp/jikoku/town/556.htm,0,,"Asia/Tokyo"
"P1012",,"東向上","",35.812239,138.451263,,http://yamanashikotsu.co.jp/jikoku/town/758.htm,0,,"Asia/Tokyo"
"P1013",,"孫女","",35.817074,138.457671,,http://yamanashikotsu.co.jp/jikoku/town/839.htm,0,,"Asia/Tokyo"
"P1014",,"平","",35.823398,138.464470,,http://yamanashikotsu.co.jp/jikoku/town/529.htm,0,,"Asia/Tokyo"
"P1015",,"五十田","",35.829292,138.468810,,http://yamanashikotsu.co.jp/jikoku/town/345.htm,0,,"Asia/Tokyo"
"P1016",,"八巻下","",35.831044,138.470966,,http://yamanashikotsu.co.jp/jikoku/town/940.htm,0,,"Asia/Tokyo"
"P1017",,"八巻上","",35.833967,138.474332,,http://yamanashikotsu.co.jp/jikoku/town/939.htm,0,,"Asia/Tokyo"
"P1018",,"大渡","",35.839366,138.481969,,http://yamanashikotsu.co.jp/jikoku/town/157.htm,0,,"Asia/Tokyo"
"P1019",,"比志下","",35.844830,138.488773,,http://yamanashikotsu.co.jp/jikoku/town/765.htm,0,,"Asia/Tokyo"
"P1020",,"比志上","",35.847891,138.493081,,http://yamanashikotsu.co.jp/jikoku/town/763.htm,0,,"Asia/Tokyo"
"P1021",,"比志三軒屋","",35.851281,138.500146,,http://yamanashikotsu.co.jp/jikoku/town/764.htm,0,,"Asia/Tokyo"
"P1022",,"塩川下","",35.853796,138.502552,,http://yamanashikotsu.co.jp/jikoku/town/391.htm,0,,"Asia/Tokyo"
"P1023",,"塩川","",35.855835,138.501425,,http://yamanashikotsu.co.jp/jikoku/town/390.htm,0,,"Asia/Tokyo"
"P1024",,"塩川トンネル","",35.856066,138.505057,,http://yamanashikotsu.co.jp/jikoku/town/392.htm,0,,"Asia/Tokyo"
"P1025",,"通仙峡","",35.858294,138.511784,,http://yamanashikotsu.co.jp/jikoku/town/585.htm,0,,"Asia/Tokyo"
"P1026",,"日向","",35.857777,138.519753,,http://yamanashikotsu.co.jp/jikoku/town/767.htm,0,,"Asia/Tokyo"
"P1027",,"日影","",35.863078,138.524138,,http://yamanashikotsu.co.jp/jikoku/town/751.htm,0,,"Asia/Tokyo"
"P1028",,"日影入口","",35.864322,138.525091,,http://yamanashikotsu.co.jp/jikoku/town/753.htm,0,,"Asia/Tokyo"
"P1029",,"増富佼成寮","",35.865083,138.526456,,http://yamanashikotsu.co.jp/jikoku/town/302.htm,0,,"Asia/Tokyo"
"P1030",,"東小尾","",35.865506,138.531160,,http://yamanashikotsu.co.jp/jikoku/town/754.htm,0,,"Asia/Tokyo"
"P1031",,"増富温泉郷","",35.865487,138.535033,,http://yamanashikotsu.co.jp/jikoku/town/841.htm,0,,"Asia/Tokyo"
"P1007",,"須玉中学校","",35.797679,138.434400,,http://yamanashikotsu.co.jp/jikoku/town/501.htm,0,,"Asia/Tokyo"
"P1093",,"若神子中","",35.790807,138.422295,,http://yamanashikotsu.co.jp/jikoku/town/1002.htm,0,,"Asia/Tokyo"
"P1085",,"須玉町総合体育館","",35.780643,138.423258,,http://yamanashikotsu.co.jp/jikoku/town/500.htm,0,,"Asia/Tokyo"
"P1087",,"百観音","",35.779542,138.425835,,http://yamanashikotsu.co.jp/jikoku/town/771.htm,0,,"Asia/Tokyo"
"P1079",,"桐の木","",35.765253,138.427209,,http://yamanashikotsu.co.jp/jikoku/town/255.htm,0,,"Asia/Tokyo"
"P1129",,"小田川上","",35.759814,138.431683,,http://yamanashikotsu.co.jp/jikoku/town/364.htm,0,,"Asia/Tokyo"
"P1075",,"三村橋入口","",35.753034,138.434494,,http://yamanashikotsu.co.jp/jikoku/town/385.htm,0,,"Asia/Tokyo"
"P1074",,"ゆーぷる韮崎","",35.748143,138.438321,,http://yamanashikotsu.co.jp/jikoku/town/965.htm,0,,"Asia/Tokyo"
"P1072",,"中条上","",35.745548,138.440427,,http://yamanashikotsu.co.jp/jikoku/town/651.htm,0,,"Asia/Tokyo"
"P1053",,"駒井","",35.735481,138.445748,,http://yamanashikotsu.co.jp/jikoku/town/350.htm,0,,"Asia/Tokyo"
"P1047",,"絵見堂","",35.729997,138.448226,,http://yamanashikotsu.co.jp/jikoku/town/122.htm,0,,"Asia/Tokyo"
"P1049",,"蔵の前","",35.725219,138.449498,,http://yamanashikotsu.co.jp/jikoku/town/268.htm,0,,"Asia/Tokyo"
"P2258",,"上九一色出張所（甲府市）","",35.530563,138.610047,,,0,,"Asia/Tokyo"
"P2257",,"梯（甲府市）","",35.534282,138.600525,,,0,,"Asia/Tokyo"
"P2256",,"右左口（甲府市）","",35.570788,138.589142,,,0,,"Asia/Tokyo"
"P2255",,"右左口交差点（甲府市）","",35.574283,138.590040,,,0,,"Asia/Tokyo"
"P2254",,"七覚入口（甲府市）","",35.573433,138.584936,,,0,,"Asia/Tokyo"
"P2253",,"中道南小学校（甲府市）","",35.576836,138.582965,,,0,,"Asia/Tokyo"
"P2252",,"金沢（甲府市）","",35.581783,138.579767,,,0,,"Asia/Tokyo"
"P2251",,"旧中道支所（甲府市）","",35.589614,138.577831,,,0,,"Asia/Tokyo"
"P4904",,"北野医院（甲府市）","",35.593045,138.577620,,,0,,"Asia/Tokyo"
"P4903",,"下曽根（甲府市）","",35.593775,138.574135,,,0,,"Asia/Tokyo"
"P2259",,"古関町（甲府市）","",35.528070,138.624222,,,0,,"Asia/Tokyo"
"P2249",,"高速バス停（甲府市）","",35.594884,138.579735,,,0,,"Asia/Tokyo"
"P4902",,"中道交流センター（甲府市）","",35.595124,138.586356,,,0,,"Asia/Tokyo"
"P4901",,"宮下（甲府市）","",35.599791,138.590870,,,0,,"Asia/Tokyo"
"P2266",,"中道北児童館（甲府市）","",35.605734,138.591274,,,0,,"Asia/Tokyo"
"P4900",,"甲府リサイクルプラザ（甲府市）","",35.626405,138.596271,,,0,,"Asia/Tokyo"
"P4899",,"甲府城南病院（甲府市）","",35.629019,138.595342,,,0,,"Asia/Tokyo"
"P928",,"市立甲府病院（甲府市）","",35.634294,138.591827,,,0,,"Asia/Tokyo"
"P4895",,"南甲府駅（甲府市）","",35.643853,138.577133,,,0,,"Asia/Tokyo"
"P4896",,"ザ・ビッグ（甲府市）","",35.641018,138.585287,,,0,,"Asia/Tokyo"
"P4898",,"いちやまマート増坪店（甲府市）","",35.638764,138.591086,,,0,,"Asia/Tokyo"
"P4897",,"ザ・ビッグ（甲府市）","",35.641069,138.585196,,,0,,"Asia/Tokyo"
"P1162",,"城東三丁目","",35.660286,138.583077,,http://yamanashikotsu.co.jp/jikoku/467.htm,0,,"Asia/Tokyo"
"P108",,"石和温泉駅入口","",35.650261,138.636955,,,0,"S61","Asia/Tokyo"
"P1448",,"成田","",35.640391,138.651334,,,0,,"Asia/Tokyo"
"P1447",,"下井上","",35.635452,138.653743,,,0,,"Asia/Tokyo"
"P1446",,"二の宮","",35.632744,138.656119,,,0,,"Asia/Tokyo"
"P1445",,"御坂団地入口","",35.631301,138.657112,,,0,,"Asia/Tokyo"
"P1444",,"夏目","",35.627407,138.659772,,,0,,"Asia/Tokyo"
"P1443",,"御坂西小学校前","",35.624992,138.662004,,,0,,"Asia/Tokyo"
"P1442",,"栗合下","",35.623675,138.663908,,,0,,"Asia/Tokyo"
"P1441",,"栗合","",35.622275,138.665915,,,0,,"Asia/Tokyo"
"P1440",,"下の原公会堂前","",35.620910,138.668565,,,0,,"Asia/Tokyo"
"P1439",,"御坂中学校","",35.620544,138.670651,,,0,,"Asia/Tokyo"
"P1438",,"尾山","",35.620204,138.676048,,,0,,"Asia/Tokyo"
"P1437",,"桃源郷公園入口","",35.619633,138.682137,,,0,,"Asia/Tokyo"
"P1436",,"下黒駒","",35.619005,138.688456,,http://www.city.fuefuki.yamanashi.jp/file/48915a5515618.pdf,0,,"Asia/Tokyo"
"P284",,"青沼三丁目","",35.652011,138.579754,,http://yamanashikotsu.co.jp/jikoku/10.htm,0,,"Asia/Tokyo"
"P802",,"東小学校","",35.651379,138.581913,,http://yamanashikotsu.co.jp/jikoku/756.htm,0,,"Asia/Tokyo"
"P803",,"里吉三丁目","",35.649324,138.588755,,http://yamanashikotsu.co.jp/jikoku/380.htm,0,,"Asia/Tokyo"
"P805",,"里吉二丁目","",35.648735,138.592213,,http://yamanashikotsu.co.jp/jikoku/381.htm,0,,"Asia/Tokyo"
"P807",,"国玉町","",35.647826,138.596925,,http://yamanashikotsu.co.jp/jikoku/263.htm,0,,"Asia/Tokyo"
"P809",,"玉諸小学校","",35.646713,138.602808,,http://yamanashikotsu.co.jp/jikoku/555.htm,0,,"Asia/Tokyo"
"P2987",,"犬目","",35.625607,139.032476,,,0,,"Asia/Tokyo"
"P2986",,"下宿","",35.626762,139.034927,,,0,,"Asia/Tokyo"
"P2985",,"安達野","",35.628240,139.038688,,,0,,"Asia/Tokyo"
"P2984",,"新田下","",35.628293,139.041097,,,0,,"Asia/Tokyo"
"P2983",,"新田入口","",35.628964,139.043049,,,0,,"Asia/Tokyo"
"P2982",,"桜窪","",35.631946,139.045479,,,0,,"Asia/Tokyo"
"P2981",,"矢坪","",35.632042,139.048119,,,0,,"Asia/Tokyo"
"P2980",,"荻野","",35.632352,139.051225,,,0,,"Asia/Tokyo"
"P2979",,"荻野入口","",35.632600,139.054014,,,0,,"Asia/Tokyo"
"P2978",,"平和中学校前","",35.631920,139.061111,,,0,,"Asia/Tokyo"
"P2977",,"花坂下","",35.627830,139.058788,,,0,,"Asia/Tokyo"
"P2976",,"大野貯水池","",35.620780,139.060178,,,0,,"Asia/Tokyo"
"P2975",,"日向入口","",35.619303,139.063547,,,0,,"Asia/Tokyo"
"P2974",,"四方津駅","",35.614382,139.071717,,,0,,"Asia/Tokyo"
"P2973",,"鼓楽神社前","",35.614591,139.074742,,,0,,"Asia/Tokyo"
"P4390",,"石の公園","",35.619253,139.078674,,,0,,"Asia/Tokyo"
"P4389",,"コモアプラザ","",35.617518,139.072967,,,0,,"Asia/Tokyo"
"P2972",,"支所前","",35.613244,139.080981,,,0,,"Asia/Tokyo"
"P2971",,"郵便局前","",35.614138,139.086689,,,0,,"Asia/Tokyo"
"P2970",,"牧野","",35.615267,139.089135,,,0,,"Asia/Tokyo"
"P2969",,"松留","",35.616929,139.098641,,,0,,"Asia/Tokyo"
"P2968",,"スバルセンター前","",35.615865,139.105840,,,0,,"Asia/Tokyo"
"P2967",,"悉聖寺","",35.617688,139.106972,,,0,,"Asia/Tokyo"
"P2966",,"上野原高校入口","",35.621041,139.107079,,,0,,"Asia/Tokyo"
"P2989",,"新田倉","",35.628890,139.104257,,,0,,"Asia/Tokyo"
"P2988",,"鶴川入口","",35.629588,139.104681,,,0,,"Asia/Tokyo"
"P2950",,"車庫前","",35.629141,139.109847,,,0,,"Asia/Tokyo"
"P2949",,"本町三丁目","",35.629049,139.110630,,,0,,"Asia/Tokyo"
"P2874",,"本町一丁目","",35.627837,139.113387,,,0,,"Asia/Tokyo"
"P4079",,"市立病院前","",35.630024,139.115796,,,0,,"Asia/Tokyo"
"P4078",,"日大明誠高校前","",35.628524,139.116054,,,0,,"Asia/Tokyo"
"P2873",,"日大明誠高校入口","",35.626956,139.114949,,,0,,"Asia/Tokyo"
"P2872",,"新町","",35.625500,139.116359,,,0,,"Asia/Tokyo"
"P2871",,"大塚","",35.623191,139.114533,,,0,,"Asia/Tokyo"
"P2870",,"関山","",35.621098,139.112824,,,0,,"Asia/Tokyo"
"P2869",,"島田入口","",35.620084,139.118607,,,0,,"Asia/Tokyo"
"P2868",,"上野原駅","",35.619057,139.116048,,,0,"S2235","Asia/Tokyo"
"P2951",,"鶴川入口","",35.630030,139.104810,,,0,,"Asia/Tokyo"
"P2990",,"上野原高校前","",35.622419,139.100862,,,0,,"Asia/Tokyo"
"P2937",,"佐野川入口","",35.624929,139.119221,,,0,,"Asia/Tokyo"
"P2939",,"クリーンセンター前","",35.628982,139.122225,,,0,,"Asia/Tokyo"
"P4086",,"石舟","",35.636721,139.125817,,,0,,"Asia/Tokyo"
"P2940",,"沢井入口","",35.641015,139.128325,,,0,,"Asia/Tokyo"
"P4087",,"佐野川","",35.642109,139.127598,,,0,,"Asia/Tokyo"
"P2941",,"芳ケ沢","",35.643391,139.126603,,,0,,"Asia/Tokyo"
"P2942",,"御霊","",35.648332,139.122577,,,0,,"Asia/Tokyo"
"P2943",,"岩中野","",35.650904,139.121292,,,0,,"Asia/Tokyo"
"P2944",,"上岩下","",35.652323,139.120581,,,0,,"Asia/Tokyo"
"P2945",,"上岩","",35.653626,139.120010,,,0,,"Asia/Tokyo"
"P2947",,"石楯尾神社前","",35.656605,139.119345,,,0,,"Asia/Tokyo"
"P2948",,"井戸","",35.662640,139.116268,,,0,,"Asia/Tokyo"
"P2936",,"新町","",35.625705,139.117062,,,0,,"Asia/Tokyo"
"P2875",,"本町三丁目","",35.629304,139.111075,,,0,,"Asia/Tokyo"
"P2876",,"営業所前","",35.630355,139.110378,,,0,,"Asia/Tokyo"
"P2877",,"旧役場前","",35.631282,139.109890,,,0,,"Asia/Tokyo"
"P2878",,"羽佐間入口","",35.632461,139.109262,,,0,,"Asia/Tokyo"
"P2879",,"大堀","",35.634846,139.107943,,,0,,"Asia/Tokyo"
"P2880",,"新井二丁目","",35.637477,139.106269,,,0,,"Asia/Tokyo"
"P2881",,"新井","",35.638916,139.105480,,,0,,"Asia/Tokyo"
"P2900",,"鏡渡橋","",35.644701,139.099448,,,0,,"Asia/Tokyo"
"P2901",,"登下入口","",35.647711,139.096951,,,0,,"Asia/Tokyo"
"P2902",,"尾続","",35.651765,139.097554,,,0,,"Asia/Tokyo"
"P2903",,"楢橋渡","",35.654877,139.093536,,,0,,"Asia/Tokyo"
"P2904",,"小棡原","",35.662703,139.088607,,,0,,"Asia/Tokyo"
"P2905",,"用竹","",35.664527,139.086032,,,0,,"Asia/Tokyo"
"P2906",,"殿村","",35.666684,139.087955,,,0,,"Asia/Tokyo"
"P2907",,"神戸","",35.669765,139.088904,,,0,,"Asia/Tokyo"
"P2908",,"棡原局前","",35.672066,139.089392,,,0,,"Asia/Tokyo"
"P2909",,"棡原中学校入口","",35.673182,139.090208,,,0,,"Asia/Tokyo"
"P2910",,"久野本","",35.674354,139.086930,,,0,,"Asia/Tokyo"
"P2911",,"寺尾","",35.677063,139.077607,,,0,,"Asia/Tokyo"
"P2912",,"大垣外","",35.677472,139.075922,,,0,,"Asia/Tokyo"
"P2913",,"沢渡","",35.679448,139.071674,,,0,,"Asia/Tokyo"
"P2914",,"三本木","",35.680799,139.067417,,,0,,"Asia/Tokyo"
"P2915",,"芦瀬","",35.680851,139.064531,,,0,,"Asia/Tokyo"
"P2916",,"日寄橋","",35.682089,139.061919,,,0,,"Asia/Tokyo"
"P2917",,"坂本","",35.682335,139.059325,,,0,,"Asia/Tokyo"
"P2918",,"梅久保","",35.682782,139.054752,,,0,,"Asia/Tokyo"
"P2919",,"初戸","",35.684926,139.049216,,,0,,"Asia/Tokyo"
"P2920",,"藤尾","",35.692742,139.043419,,,0,,"Asia/Tokyo"
"P2921",,"むとうじ","",35.693986,139.040565,,,0,,"Asia/Tokyo"
"P4359",,"藤尾分教場","",35.696271,139.038334,,,0,,"Asia/Tokyo"
"P2922",,"上平橋","",35.697268,139.036751,,,0,,"Asia/Tokyo"
"P2923",,"佐群入口","",35.698632,139.035263,,,0,,"Asia/Tokyo"
"P2924",,"田和","",35.698432,139.034083,,,0,,"Asia/Tokyo"
"P2925",,"扁盃","",35.699425,139.027978,,,0,,"Asia/Tokyo"
"P2926",,"阿寺沢入口","",35.698682,139.024443,,,0,,"Asia/Tokyo"
"P2927",,"西原支所前","",35.703570,139.021522,,,0,,"Asia/Tokyo"
"P2928",,"下城河原","",35.704191,139.020647,,,0,,"Asia/Tokyo"
"P2929",,"学校前","",35.705162,139.018998,,,0,,"Asia/Tokyo"
"P2930",,"郷原","",35.705818,139.017026,,,0,,"Asia/Tokyo"
"P2931",,"原","",35.706772,139.014505,,,0,,"Asia/Tokyo"
"P2932",,"一宮神社前","",35.706556,139.013105,,,0,,"Asia/Tokyo"
"P2933",,"八ツ田","",35.708873,139.004884,,,0,,"Asia/Tokyo"
"P2934",,"御岳神社前","",35.709516,139.003986,,,0,,"Asia/Tokyo"
"P2935",,"飯尾","",35.711267,139.004310,,,0,,"Asia/Tokyo"
"P3026",,"諏訪神社前","",35.618285,139.126418,,,0,,"Asia/Tokyo"
"P3027",,"上諏訪","",35.619471,139.125388,,,0,,"Asia/Tokyo"
"P3028",,"諏訪橋","",35.620029,139.125195,,,0,,"Asia/Tokyo"
"P3029",,"塚場","",35.622524,139.122663,,,0,,"Asia/Tokyo"
"P3030",,"諏訪入口","",35.624251,139.119723,,,0,,"Asia/Tokyo"
"P3050",,"西大野","",35.621006,139.057834,,,0,,"Asia/Tokyo"
"P3051",,"大目農協前","",35.621172,139.053810,,,0,,"Asia/Tokyo"
"P3052",,"談合坂入口","",35.621817,139.049803,,,0,,"Asia/Tokyo"
"P3053",,"大目学校前","",35.621752,139.048172,,,0,,"Asia/Tokyo"
"P3054",,"犬目入口","",35.622253,139.046037,,,0,,"Asia/Tokyo"
"P3055",,"谷後","",35.622014,139.043403,,,0,,"Asia/Tokyo"
"P3056",,"日留野","",35.618708,139.043580,,,0,,"Asia/Tokyo"
"P3057",,"太田","",35.617134,139.039262,,,0,,"Asia/Tokyo"
"P3058",,"太田上","",35.618503,139.035839,,,0,,"Asia/Tokyo"
"P2888",,"営業所前","",35.613721,138.976378,,,0,,"Asia/Tokyo"
"P2866",,"関谷","",35.613641,138.978660,,,0,,"Asia/Tokyo"
"P3646",,"小倉","",35.611251,138.978191,,,0,,"Asia/Tokyo"
"P3647",,"田中入口","",35.601952,138.975991,,,0,,"Asia/Tokyo"
"P3648",,"田中","",35.600077,138.975138,,,0,,"Asia/Tokyo"
"P3649",,"幡野入口","",35.598827,138.974352,,,0,,"Asia/Tokyo"
"P3650",,"千手","",35.595226,138.969830,,,0,,"Asia/Tokyo"
"P3651",,"小沢","",35.593745,138.967770,,,0,,"Asia/Tokyo"
"P3652",,"漆原","",35.588380,138.963983,,,0,,"Asia/Tokyo"
"P3653",,"漆原上","",35.586656,138.964447,,,0,,"Asia/Tokyo"
"P3654",,"朝日小沢","",35.584925,138.967038,,,0,,"Asia/Tokyo"
"P3655",,"朝日小沢上","",35.583371,138.970029,,,0,,"Asia/Tokyo"
"P2865",,"営業所前","",35.613719,138.976359,,,0,,"Asia/Tokyo"
"P3121",,"猿橋農協前","",35.613861,138.978708,,,0,,"Asia/Tokyo"
"P3120",,"猿橋","",35.615038,138.980189,,,0,,"Asia/Tokyo"
"P3119",,"猿橋中学校入口","",35.615876,138.981450,,,0,,"Asia/Tokyo"
"P3118",,"東町","",35.616964,138.983606,,,0,,"Asia/Tokyo"
"P3117",,"宮谷新道","",35.618551,138.986235,,,0,,"Asia/Tokyo"
"P3116",,"小向","",35.615887,138.993310,,,0,,"Asia/Tokyo"
"P3115",,"横吹団地入口","",35.611661,138.995306,,,0,,"Asia/Tokyo"
"P3114",,"上鳥沢","",35.608857,139.000590,,,0,,"Asia/Tokyo"
"P3113",,"鳥沢駅前","",35.608678,139.003138,,,0,,"Asia/Tokyo"
"P3112",,"鳥沢小学校前","",35.608861,139.005337,,,0,,"Asia/Tokyo"
"P3111",,"竹の入口","",35.608560,139.009715,,,0,,"Asia/Tokyo"
"P3110",,"中野入口","",35.608333,139.011431,,,0,,"Asia/Tokyo"
"P3712",,"中野","",35.612561,139.013518,,,0,,"Asia/Tokyo"
"P3713",,"中野神社前","",35.613874,139.014226,,,0,,"Asia/Tokyo"
"P3714",,"山谷","",35.622476,139.018925,,,0,,"Asia/Tokyo"
"P3658",,"霞町","",35.616329,138.977349,,,0,,"Asia/Tokyo"
"P3659",,"吉久保","",35.616877,138.974162,,,0,,"Asia/Tokyo"
"P3660",,"市営グランド入口","",35.617509,138.970809,,,0,,"Asia/Tokyo"
"P3661",,"下和田","",35.618340,138.969766,,,0,,"Asia/Tokyo"
"P3662",,"沢向橋","",35.619556,138.968063,,,0,,"Asia/Tokyo"
"P3663",,"大島","",35.621915,138.964536,,,0,,"Asia/Tokyo"
"P3664",,"宮古橋","",35.627883,138.958066,,,0,,"Asia/Tokyo"
"P3665",,"福泉寺前","",35.629660,138.957495,,,0,,"Asia/Tokyo"
"P3666",,"戸並入口","",35.630436,138.956977,,,0,,"Asia/Tokyo"
"P3667",,"葛野","",35.632134,138.956489,,,0,,"Asia/Tokyo"
"P3668",,"診療所前","",35.633132,138.955220,,,0,,"Asia/Tokyo"
"P3669",,"葛葉学園前","",35.633775,138.954475,,,0,,"Asia/Tokyo"
"P3670",,"二葉保育園前","",35.636463,138.953539,,,0,,"Asia/Tokyo"
"P3671",,"七保橋","",35.637739,138.953458,,,0,,"Asia/Tokyo"
"P3645",,"田無瀬","",35.638791,138.954163,,,0,,"Asia/Tokyo"
"P3672",,"田無瀬上","",35.640623,138.956194,,,0,,"Asia/Tokyo"
"P3673",,"奈良子入口","",35.642369,138.955151,,,0,,"Asia/Tokyo"
"P3679",,"金竜寺前","",35.644860,138.958313,,,0,,"Asia/Tokyo"
"P3680",,"浅川入口","",35.648406,138.962671,,,0,,"Asia/Tokyo"
"P3681",,"上平","",35.649738,138.962867,,,0,,"Asia/Tokyo"
"P3682",,"吉平","",35.656032,138.962822,,,0,,"Asia/Tokyo"
"P3683",,"富岡","",35.657887,138.964452,,,0,,"Asia/Tokyo"
"P3684",,"杉平入口","",35.662128,138.965635,,,0,,"Asia/Tokyo"
"P3685",,"瀬戸","",35.663533,138.966904,,,0,,"Asia/Tokyo"
"P3686",,"六ツ原橋","",35.665926,138.967376,,,0,,"Asia/Tokyo"
"P3687",,"井戸地","",35.668395,138.965718,,,0,,"Asia/Tokyo"
"P3688",,"川津畑","",35.670990,138.966132,,,0,,"Asia/Tokyo"
"P3689",,"八坪","",35.673803,138.966523,,,0,,"Asia/Tokyo"
"P3690",,"オモレ","",35.678474,138.968379,,,0,,"Asia/Tokyo"
"P3691",,"小寺","",35.684936,138.969503,,,0,,"Asia/Tokyo"
"P3692",,"中風呂","",35.686026,138.965539,,,0,,"Asia/Tokyo"
"P3693",,"上和田","",35.690021,138.963015,,,0,,"Asia/Tokyo"
"P3694",,"下平","",35.692062,138.959426,,,0,,"Asia/Tokyo"
"P3695",,"新竹の向橋","",35.697994,138.950416,,,0,,"Asia/Tokyo"
"P3696",,"竹の向","",35.702348,138.950634,,,0,,"Asia/Tokyo"
"P4926",,"深城ダム","",35.708783,138.948249,,,0,,"Asia/Tokyo"
"P3004",,"小永田","",35.747845,138.956248,,,0,,"Asia/Tokyo"
"P3005",,"井狩","",35.752686,138.953319,,,0,,"Asia/Tokyo"
"P3006",,"小菅の湯","",35.754175,138.950197,,http://www.vill.kosuge.yamanashi.jp/tourism/access/images/soneibus.pdf,0,,"Asia/Tokyo"
"P3103",,"新倉","",35.606876,139.057501,,,0,,"Asia/Tokyo"
"P4924",,"桂川清流センター前","",35.606431,139.053529,,,0,,"Asia/Tokyo"
"P3104",,"綱の上","",35.602541,139.044578,,,0,,"Asia/Tokyo"
"P3105",,"梁川支所前","",35.602772,139.041730,,,0,,"Asia/Tokyo"
"P3106",,"梁川駅前","",35.604325,139.038495,,,0,,"Asia/Tokyo"
"P3107",,"彦田","",35.606872,139.035823,,,0,,"Asia/Tokyo"
"P3108",,"斧窪","",35.607269,139.030711,,,0,,"Asia/Tokyo"
"P4500",,"ドライブイン富士","",35.605612,139.028614,,,0,,"Asia/Tokyo"
"P3109",,"下畑入口","",35.604569,139.017541,,,0,,"Asia/Tokyo"
"P4088",,"総合体育館前","",35.605638,138.999227,,,0,,"Asia/Tokyo"
"P2890",,"住宅前","",35.612500,138.979803,,,0,,"Asia/Tokyo"
"P2867",,"猿橋小学校","",35.612339,138.982734,,,0,,"Asia/Tokyo"
"P2892",,"四季の丘リバーサイド入口","",35.611661,138.986200,,,0,,"Asia/Tokyo"
"P2893",,"四季の丘","",35.610673,138.987761,,,0,,"Asia/Tokyo"
"P2894",,"坂下","",35.609301,138.989207,,,0,,"Asia/Tokyo"
"P2895",,"小田","",35.608362,138.989810,,,0,,"Asia/Tokyo"
"P2896",,"岡","",35.606150,138.991677,,,0,,"Asia/Tokyo"
"P2897",,"公民館前","",35.604502,138.993766,,,0,,"Asia/Tokyo"
"P2898",,"太田","",35.603014,138.995008,,,0,,"Asia/Tokyo"
"P2899",,"藤崎","",35.600698,138.995917,,,0,,"Asia/Tokyo"
"P3123",,"幼稚園前","",35.614005,138.973939,,,0,,"Asia/Tokyo"
"P3124",,"殿上下宿","",35.614210,138.970761,,,0,,"Asia/Tokyo"
"P2885",,"猿橋駅","",35.612769,138.967593,,,0,"S2250","Asia/Tokyo"
"P2884",,"駅前通り","",35.614081,138.966942,,,0,,"Asia/Tokyo"
"P3126",,"殿上橋","",35.611641,138.965608,,,0,,"Asia/Tokyo"
"P3127",,"市営住宅前","",35.611347,138.961548,,,0,,"Asia/Tokyo"
"P3128",,"横尾橋","",35.612742,138.957063,,,0,,"Asia/Tokyo"
"P3129",,"駒橋","",35.613309,138.951897,,,0,,"Asia/Tokyo"
"P3130",,"駒橋上宿","",35.613846,138.949939,,,0,,"Asia/Tokyo"
"P3131",,"日本生命前","",35.613854,138.947498,,,0,,"Asia/Tokyo"
"P3132",,"イオン大月店前","",35.613401,138.946184,,,0,,"Asia/Tokyo"
"P3133",,"大月短大前","",35.613069,138.945036,,,0,,"Asia/Tokyo"
"P3134",,"大月駅","",35.613078,138.942976,,,0,"S2466","Asia/Tokyo"
"P3125",,"駅前通り","",35.614160,138.967285,,,0,,"Asia/Tokyo"
"P4361",,"駅前通り","",35.614269,138.967878,,,0,,"Asia/Tokyo"
"P3697",,"落合橋","",35.651100,138.964511,,,0,,"Asia/Tokyo"
"P3698",,"腰越","",35.654411,138.971255,,,0,,"Asia/Tokyo"
"P3699",,"風原","",35.654703,138.976396,,,0,,"Asia/Tokyo"
"P3700",,"川久保","",35.654790,138.982211,,,0,,"Asia/Tokyo"
"P3701",,"浅川公民館","",35.653833,138.989260,,,0,,"Asia/Tokyo"
"P3702",,"浅川橋","",35.654151,138.996835,,,0,,"Asia/Tokyo"
"P3703",,"松葉","",35.654786,138.999530,,,0,,"Asia/Tokyo"
"P3704",,"浅川","",35.655642,139.004374,,,0,,"Asia/Tokyo"
"P3674",,"林入口","",35.645429,138.951269,,,0,,"Asia/Tokyo"
"P3675",,"林沢戸入口","",35.649773,138.949880,,,0,,"Asia/Tokyo"
"P3676",,"菅沼入口","",35.657442,138.951355,,,0,,"Asia/Tokyo"
"P3677",,"奈良子東","",35.660600,138.950572,,,0,,"Asia/Tokyo"
"P3678",,"奈良子","",35.665787,138.949341,,,0,,"Asia/Tokyo"
"P3656",,"百蔵橋","",35.616534,138.968913,,,0,,"Asia/Tokyo"
"P3705",,"下和田団地入口","",35.619853,138.973856,,,0,,"Asia/Tokyo"
"P3706",,"百蔵山登山口","",35.625256,138.975586,,,0,,"Asia/Tokyo"
"P3707",,"やまびこ養護学校","",35.624896,138.981785,,,0,,"Asia/Tokyo"
"P3708",,"宮谷上","",35.624030,138.986704,,,0,,"Asia/Tokyo"
"P3709",,"宮谷中","",35.622112,138.987621,,,0,,"Asia/Tokyo"
"P3710",,"宮谷下","",35.620756,138.988992,,,0,,"Asia/Tokyo"
"P3711",,"堀江製作所前","",35.618747,138.988340,,,0,,"Asia/Tokyo"
"P2882",,"桂台","",35.610265,138.971110,,,0,,"Asia/Tokyo"
"P2883",,"殿上橋","",35.611787,138.965718,,,0,,"Asia/Tokyo"
"P2886",,"殿上下宿","",35.614262,138.970772,,,0,,"Asia/Tokyo"
"P2887",,"幼稚園前","",35.614014,138.974025,,,0,,"Asia/Tokyo"
"P3562",,"大月一丁目","",35.611556,138.941715,,,0,,"Asia/Tokyo"
"P3563",,"市役所前","",35.610771,138.939932,,,0,,"Asia/Tokyo"
"P3564",,"都留高前","",35.610195,138.938658,,,0,,"Asia/Tokyo"
"P3565",,"中央病院前","",35.607491,138.936598,,,0,,"Asia/Tokyo"
"P3614",,"上真木","",35.614633,138.905288,,,0,,"Asia/Tokyo"
"P3613",,"辻","",35.611541,138.904645,,,0,,"Asia/Tokyo"
"P3612",,"中真木","",35.610113,138.904355,,,0,,"Asia/Tokyo"
"P3611",,"下原","",35.608115,138.904752,,,0,,"Asia/Tokyo"
"P3610",,"小佐野","",35.606233,138.904333,,,0,,"Asia/Tokyo"
"P3609",,"真木保育園前","",35.604105,138.904569,,,0,,"Asia/Tokyo"
"P3576",,"下真木","",35.600620,138.906047,,,0,,"Asia/Tokyo"
"P3575",,"大月警察署前","",35.598766,138.912595,,,0,,"Asia/Tokyo"
"P3574",,"三軒屋","",35.599257,138.915229,,,0,,"Asia/Tokyo"
"P3573",,"花折","",35.600498,138.918050,,,0,,"Asia/Tokyo"
"P3572",,"上花咲","",35.601998,138.921092,,,0,,"Asia/Tokyo"
"P3571",,"西方寺入口","",35.602467,138.922302,,,0,,"Asia/Tokyo"
"P3570",,"大月市総合福祉センター前","",35.604696,138.926969,,,0,,"Asia/Tokyo"
"P3569",,"下花咲","",35.605357,138.928074,,,0,,"Asia/Tokyo"
"P3568",,"花咲下宿","",35.605714,138.930340,,,0,,"Asia/Tokyo"
"P3567",,"北都留合同庁舎入口","",35.606920,138.934189,,,0,,"Asia/Tokyo"
"P3622",,"大月東中入口","",35.611079,138.937832,,,0,,"Asia/Tokyo"
"P3566",,"大月中央病院入口","",35.607864,138.935042,,,0,,"Asia/Tokyo"
"P3608",,"下真木","",35.600958,138.906069,,,0,,"Asia/Tokyo"
"P3615",,"福正寺前","",35.618808,138.903722,,,0,,"Asia/Tokyo"
"P3616",,"遊仙橋下","",35.622519,138.902078,,,0,,"Asia/Tokyo"
"P3617",,"遊仙橋","",35.624397,138.900176,,,0,,"Asia/Tokyo"
"P3618",,"万年橋","",35.629167,138.895640,,,0,,"Asia/Tokyo"
"P3619",,"間明野","",35.632119,138.892781,,,0,,"Asia/Tokyo"
"P3620",,"桑西","",35.636917,138.887755,,,0,,"Asia/Tokyo"
"P3621",,"ハマイバ前","",35.640180,138.883935,,,0,,"Asia/Tokyo"
"P4925",,"大月東中学校前","",35.610999,138.937266,,,0,,"Asia/Tokyo"
"P4916",,"県立リニア見学センター","",35.583184,138.926582,,,0,,"Asia/Tokyo"
"P4910",,"中谷入口","",35.583826,138.927789,,,0,,"Asia/Tokyo"
"P4909",,"道の駅つる","",35.582770,138.931603,,,0,,"Asia/Tokyo"
"P4908",,"大原入口","",35.584204,138.934138,,,0,,"Asia/Tokyo"
"P3721",,"田野倉","",35.593300,138.929949,,,0,,"Asia/Tokyo"
"P3720",,"下宿","",35.595717,138.930099,,,0,,"Asia/Tokyo"
"P3719",,"オーツル前","",35.599268,138.933199,,,0,,"Asia/Tokyo"
"P3718",,"先の宮","",35.601625,138.936732,,,0,,"Asia/Tokyo"
"P3717",,"沢井","",35.604489,138.941495,,,0,,"Asia/Tokyo"
"P4360",,"駅前通り","",35.614391,138.967835,,,0,,"Asia/Tokyo"
"P3607",,"新田（大月）","",35.599989,138.801176,,,0,,"Asia/Tokyo"
"P3606",,"新田下","",35.602103,138.801932,,,0,,"Asia/Tokyo"
"P3605",,"新中橋","",35.602373,138.804582,,,0,,"Asia/Tokyo"
"P3604",,"公民館前","",35.604864,138.807696,,,0,,"Asia/Tokyo"
"P3603",,"追分","",35.605195,138.810834,,,0,,"Asia/Tokyo"
"P3602",,"黒野田橋","",35.604702,138.820120,,,0,,"Asia/Tokyo"
"P3601",,"黒野田","",35.604471,138.821400,,,0,,"Asia/Tokyo"
"P3600",,"変電所前","",35.604212,138.824420,,,0,,"Asia/Tokyo"
"P3599",,"笹子駅前","",35.604249,138.828188,,,0,,"Asia/Tokyo"
"P3598",,"笹子局前","",35.604155,138.829757,,,0,,"Asia/Tokyo"
"P3597",,"笹子川橋","",35.605014,138.834491,,,0,,"Asia/Tokyo"
"P3596",,"吉久保入口","",35.603926,138.840516,,,0,,"Asia/Tokyo"
"P3595",,"吉久保","",35.603834,138.842259,,,0,,"Asia/Tokyo"
"P3594",,"原公民館前","",35.602356,138.844434,,,0,,"Asia/Tokyo"
"P3593",,"原","",35.601972,138.848442,,,0,,"Asia/Tokyo"
"P3591",,"原入口","",35.601830,138.850322,,,0,,"Asia/Tokyo"
"P3590",,"白野上宿","",35.602541,138.852744,,,0,,"Asia/Tokyo"
"P3589",,"白野中宿","",35.603557,138.855351,,,0,,"Asia/Tokyo"
"P3588",,"白野下宿","",35.603533,138.857247,,,0,,"Asia/Tokyo"
"P3587",,"立河原","",35.601773,138.865589,,,0,,"Asia/Tokyo"
"P3586",,"唐沢橋","",35.598633,138.870908,,,0,,"Asia/Tokyo"
"P3585",,"神戸","",35.596633,138.873330,,,0,,"Asia/Tokyo"
"P3584",,"側子","",35.596171,138.876200,,,0,,"Asia/Tokyo"
"P3583",,"武道館前","",35.595774,138.878286,,,0,,"Asia/Tokyo"
"P3582",,"藤沢入口","",35.596099,138.880926,,,0,,"Asia/Tokyo"
"P3581",,"初狩駅前","",35.596365,138.885440,,,0,,"Asia/Tokyo"
"P3579",,"法雲寺前","",35.598932,138.889973,,,0,,"Asia/Tokyo"
"P3578",,"日の出鉱泉前","",35.599704,138.893087,,,0,,"Asia/Tokyo"
"P3577",,"初月橋","",35.601978,138.902595,,,0,,"Asia/Tokyo"
"P3625",,"浅利消防会館前","",35.615747,138.935970,,,0,,"Asia/Tokyo"
"P3626",,"浅利公民館前","",35.617766,138.933417,,,0,,"Asia/Tokyo"
"P3627",,"サンコート大月前","",35.621272,138.925139,,,0,,"Asia/Tokyo"
"P3628",,"西奥山公民館前","",35.629064,138.922725,,,0,,"Asia/Tokyo"
"P3629",,"遅能戸","",35.631229,138.922401,,,0,,"Asia/Tokyo"
"P3630",,"西奥山","",35.629618,138.918563,,,0,,"Asia/Tokyo"
"P3631",,"高月橋","",35.617186,138.948523,,,0,,"Asia/Tokyo"
"P3632",,"ゆりヶ丘入口","",35.619511,138.954150,,,0,,"Asia/Tokyo"
"P3633",,"岩殿","",35.620272,138.955148,,,0,,"Asia/Tokyo"
"P3634",,"岩殿上","",35.621894,138.956358,,,0,,"Asia/Tokyo"
"P3635",,"神倉","",35.623289,138.954354,,,0,,"Asia/Tokyo"
"P3636",,"自動車教習所前","",35.625240,138.951862,,,0,,"Asia/Tokyo"
"P3637",,"神宮橋","",35.626627,138.950607,,,0,,"Asia/Tokyo"
"P3638",,"畑倉小学校前","",35.628155,138.948727,,,0,,"Asia/Tokyo"
"P3639",,"畑倉","",35.629335,138.947635,,,0,,"Asia/Tokyo"
"P3640",,"日影入口","",35.632587,138.946592,,,0,,"Asia/Tokyo"
"P3643",,"東原","",35.633311,138.946162,,,0,,"Asia/Tokyo"
"P3644",,"小和田下","",35.634057,138.951878,,,0,,"Asia/Tokyo"
"P3641",,"尾尻道下","",35.633348,138.943614,,,0,,"Asia/Tokyo"
"P3642",,"日影","",35.633398,138.941058,,,0,,"Asia/Tokyo"
"P3870",,"月夜野","",35.539064,139.112602,,,0,,"Asia/Tokyo"
"P3869",,"両国屋","",35.539093,139.111032,,,0,,"Asia/Tokyo"
"P3868",,"月夜野桟道橋","",35.538163,139.112948,,,0,,"Asia/Tokyo"
"P3867",,"子沢橋","",35.536371,139.107779,,,0,,"Asia/Tokyo"
"P3866",,"神の川入口","",35.533606,139.108441,,,0,,"Asia/Tokyo"
"P3865",,"月夜野キャンプ場","",35.529533,139.101690,,,0,,"Asia/Tokyo"
"P3864",,"大渡","",35.530648,139.096082,,,0,,"Asia/Tokyo"
"P3863",,"中沢","",35.531796,139.096431,,,0,,"Asia/Tokyo"
"P3862",,"野原犬橋","",35.534802,139.091833,,,0,,"Asia/Tokyo"
"P3861",,"野原中","",35.535046,139.090758,,,0,,"Asia/Tokyo"
"P3860",,"野原","",35.535494,139.088872,,,0,,"Asia/Tokyo"
"P3859",,"みなもと体験館前","",35.535502,139.084119,,,0,,"Asia/Tokyo"
"P3858",,"久保","",35.536035,139.082786,,,0,,"Asia/Tokyo"
"P3857",,"笹久根","",35.534381,139.077349,,,0,,"Asia/Tokyo"
"P3856",,"大室橋","",35.535092,139.074214,,,0,,"Asia/Tokyo"
"P3855",,"大室指","",35.533872,139.072173,,,0,,"Asia/Tokyo"
"P3854",,"大羽根","",35.533892,139.070338,,,0,,"Asia/Tokyo"
"P3853",,"砂原","",35.534660,139.063531,,,0,,"Asia/Tokyo"
"P3852",,"椿大橋","",35.535446,139.056031,,,0,,"Asia/Tokyo"
"P3851",,"東原","",35.532861,139.052448,,,0,,"Asia/Tokyo"
"P3850",,"小善地","",35.532689,139.051981,,,0,,"Asia/Tokyo"
"P3849",,"西川","",35.532527,139.051085,,,0,,"Asia/Tokyo"
"P3848",,"湯本","",35.532401,139.049224,,,0,,"Asia/Tokyo"
"P3847",,"北海屋前","",35.532327,139.047928,,,0,,"Asia/Tokyo"
"P3846",,"大栗","",35.531519,139.047268,,,0,,"Asia/Tokyo"
"P3845",,"馬場東口","",35.530054,139.042156,,,0,,"Asia/Tokyo"
"P3489",,"道志小学校前","",35.530006,139.041303,,,0,,"Asia/Tokyo"
"P3488",,"馬場","",35.529448,139.040480,,,0,,"Asia/Tokyo"
"P3487",,"馬場西口","",35.529122,139.037814,,,0,,"Asia/Tokyo"
"P3486",,"道志","",35.527983,139.033844,,,0,,"Asia/Tokyo"
"P3485",,"竹の本","",35.527664,139.033184,,,0,,"Asia/Tokyo"
"P3484",,"大川渡","",35.527359,139.032339,,,0,,"Asia/Tokyo"
"P3483",,"戸渡","",35.526568,139.027562,,,0,,"Asia/Tokyo"
"P3482",,"的場下","",35.525750,139.026267,,,0,,"Asia/Tokyo"
"P3481",,"和出公民館入口","",35.522517,139.023552,,,0,,"Asia/Tokyo"
"P3480",,"道志中学校前","",35.520100,139.022753,,,0,,"Asia/Tokyo"
"P3479",,"和出村","",35.521940,139.022640,,,0,,"Asia/Tokyo"
"P3478",,"村営谷相住宅前","",35.519987,139.020564,,,0,,"Asia/Tokyo"
"P3477",,"谷相","",35.518491,139.018845,,,0,,"Asia/Tokyo"
"P3476",,"駐在所前","",35.517699,139.016267,,,0,,"Asia/Tokyo"
"P3475",,"河原畑","",35.516670,139.014647,,,0,,"Asia/Tokyo"
"P3474",,"局前","",35.515865,139.013808,,,0,,"Asia/Tokyo"
"P3473",,"大指","",35.514413,139.012421,,,0,,"Asia/Tokyo"
"P3472",,"曙橋","",35.514138,139.011179,,,0,,"Asia/Tokyo"
"P3471",,"釜の前","",35.513758,139.008234,,,0,,"Asia/Tokyo"
"P3470",,"上河原畑","",35.513099,139.005579,,,0,,"Asia/Tokyo"
"P3469",,"唐沢","",35.511038,139.000316,,,0,,"Asia/Tokyo"
"P3843",,"上石原","",35.510077,138.996320,,,0,,"Asia/Tokyo"
"P3842",,"水道局前","",35.508710,138.994780,,,0,,"Asia/Tokyo"
"P3841",,"神地上","",35.508282,138.993522,,,0,,"Asia/Tokyo"
"P3840",,"五輪","",35.507033,138.990923,,,0,,"Asia/Tokyo"
"P3839",,"野牧","",35.507935,138.992087,,,0,,"Asia/Tokyo"
"P3838",,"神地沢","",35.511640,138.973355,,,0,,"Asia/Tokyo"
"P3837",,"道坂隧道","",35.511743,138.968004,,,0,,"Asia/Tokyo"
"P3836",,"松平","",35.511992,138.964324,,,0,,"Asia/Tokyo"
"P3835",,"清風台入口","",35.511040,138.950312,,,0,,"Asia/Tokyo"
"P3834",,"菅野上橋","",35.513804,138.943089,,,0,,"Asia/Tokyo"
"P3833",,"菅野上","",35.515035,138.941849,,,0,,"Asia/Tokyo"
"P3832",,"菅野","",35.516203,138.939462,,,0,,"Asia/Tokyo"
"P3831",,"源橋","",35.518310,138.931496,,,0,,"Asia/Tokyo"
"P3830",,"御正体入口","",35.518637,138.929192,,,0,,"Asia/Tokyo"
"P3829",,"細野","",35.520565,138.925957,,,0,,"Asia/Tokyo"
"P3828",,"細野下","",35.522307,138.926153,,,0,,"Asia/Tokyo"
"P3827",,"文大付属小学校前","",35.527968,138.920636,,,0,,"Asia/Tokyo"
"P3826",,"大津","",35.529633,138.917254,,,0,,"Asia/Tokyo"
"P3825",,"沢田橋","",35.530565,138.916605,,,0,,"Asia/Tokyo"
"P3824",,"八幡橋","",35.533431,138.909848,,,0,,"Asia/Tokyo"
"P3823",,"開地保育園前","",35.534701,138.908982,,,0,,"Asia/Tokyo"
"P3822",,"小野熊神社前","",35.537537,138.908024,,,0,,"Asia/Tokyo"
"P3821",,"緑町","",35.540560,138.907992,,,0,,"Asia/Tokyo"
"P3820",,"熊井戸入口","",35.542236,138.908456,,,0,,"Asia/Tokyo"
"P3819",,"都留一中前","",35.544154,138.909051,,,0,,"Asia/Tokyo"
"P3818",,"天神前","",35.546649,138.906340,,,0,,"Asia/Tokyo"
"P3817",,"金山神社前","",35.545210,138.904634,,,0,,"Asia/Tokyo"
"P3816",,"産業短期大学前","",35.542829,138.900825,,,0,,"Asia/Tokyo"
"P3812",,"岡島食品館前","",35.543419,138.900216,,,0,,"Asia/Tokyo"
"P3241",,"都留興譲館高校北","",35.545171,138.900530,,,0,,"Asia/Tokyo"
"P3242",,"柳田橋","",35.546358,138.903271,,,0,,"Asia/Tokyo"
"P3243",,"都留第一中学校入口","",35.548135,138.905068,,,0,,"Asia/Tokyo"
"P3244",,"谷村町駅入口","",35.549791,138.906468,,,0,,"Asia/Tokyo"
"P3245",,"大手前","",35.551858,138.908437,,,0,,"Asia/Tokyo"
"P3246",,"日本生命前","",35.552484,138.908992,,,0,,"Asia/Tokyo"
"P3247",,"中央二郵便局前","",35.555203,138.910696,,,0,,"Asia/Tokyo"
"P3248",,"都留市駅","",35.556746,138.907831,,,0,"S2568","Asia/Tokyo"
"P3736",,"寿町","",35.558336,138.908316,,,0,,"Asia/Tokyo"
"P3737",,"道生堀","",35.561518,138.906855,,,0,,"Asia/Tokyo"
"P3738",,"市立病院入口","",35.562770,138.905315,,,0,,"Asia/Tokyo"
"P3739",,"都留市立病院前","",35.562587,138.903384,,,0,,"Asia/Tokyo"
"P3760",,"雇用促進住宅入口","",35.562569,138.907147,,,0,,"Asia/Tokyo"
"P3763",,"健康科学大学前","",35.571574,138.918616,,,0,,"Asia/Tokyo"
"P3844",,"道志の湯","",35.514708,139.025081,,,0,,"Asia/Tokyo"
"P4090",,"医科歯科診療所","",35.518011,139.020867,,,0,,"Asia/Tokyo"
"P3468",,"下石原","",35.508824,138.998240,,,0,,"Asia/Tokyo"
"P3467",,"石原","",35.508025,138.997318,,,0,,"Asia/Tokyo"
"P3466",,"下神地","",35.507195,138.995048,,,0,,"Asia/Tokyo"
"P3465",,"中神地","",35.506557,138.994045,,,0,,"Asia/Tokyo"
"P3464",,"泉屋前","",35.505164,138.993090,,,0,,"Asia/Tokyo"
"P3463",,"神地橋","",35.504282,138.990392,,,0,,"Asia/Tokyo"
"P3462",,"中山","",35.502776,138.988498,,,0,,"Asia/Tokyo"
"P3461",,"下善の木","",35.497430,138.983268,,,0,,"Asia/Tokyo"
"P3460",,"善の木","",35.496242,138.981600,,,0,,"Asia/Tokyo"
"P3459",,"農協前","",35.495159,138.980983,,,0,,"Asia/Tokyo"
"P3458",,"川村","",35.493997,138.978665,,,0,,"Asia/Tokyo"
"P3457",,"善の木小学校","",35.491700,138.974154,,,0,,"Asia/Tokyo"
"P3456",,"板橋","",35.489367,138.970474,,,0,,"Asia/Tokyo"
"P3455",,"唐沢橋","",35.486251,138.965144,,,0,,"Asia/Tokyo"
"P3454",,"白井平","",35.484362,138.961494,,,0,,"Asia/Tokyo"
"P3453",,"御正橋","",35.482370,138.959563,,,0,,"Asia/Tokyo"
"P3452",,"下村","",35.479155,138.956414,,,0,,"Asia/Tokyo"
"P3451",,"長又","",35.479024,138.954354,,,0,,"Asia/Tokyo"
"P3724",,"大原橋","",35.585804,138.936767,,,0,,"Asia/Tokyo"
"P3725",,"落合","",35.579534,138.935796,,,0,,"Asia/Tokyo"
"P3726",,"須藤病院入口","",35.577534,138.933427,,,0,,"Asia/Tokyo"
"P3764",,"禾生駅前","",35.573993,138.929715,,,0,,"Asia/Tokyo"
"P4915",,"八王子神社前","",35.575474,138.926457,,,0,,"Asia/Tokyo"
"P4914",,"川茂発電所入口","",35.573575,138.922485,,,0,,"Asia/Tokyo"
"P4913",,"都留第二中学校前","",35.569238,138.915746,,,0,,"Asia/Tokyo"
"P4912",,"月見ヶ丘入口","",35.567433,138.915211,,,0,,"Asia/Tokyo"
"P4911",,"谷村町","",35.550440,138.904759,,,0,,"Asia/Tokyo"
"P3727",,"禾生駅前","",35.574787,138.929766,,,0,,"Asia/Tokyo"
"P3754",,"つるぎ","",35.565611,138.856982,,,0,,"Asia/Tokyo"
"P3753",,"上大幡","",35.564782,138.860447,,,0,,"Asia/Tokyo"
"P3752",,"上大幡JA前","",35.563490,138.864792,,,0,,"Asia/Tokyo"
"P3751",,"岩崎","",35.562860,138.869229,,,0,,"Asia/Tokyo"
"P3750",,"広教寺前","",35.562860,138.873912,,,0,,"Asia/Tokyo"
"P3749",,"学校前","",35.563237,138.877434,,,0,,"Asia/Tokyo"
"P3748",,"御太刀入口","",35.563228,138.879786,,,0,,"Asia/Tokyo"
"P3747",,"宝支所前","",35.563414,138.882012,,,0,,"Asia/Tokyo"
"P3746",,"中津森中組","",35.564125,138.885429,,,0,,"Asia/Tokyo"
"P3745",,"中津森","",35.563837,138.888055,,,0,,"Asia/Tokyo"
"P3744",,"南入口","",35.563641,138.890324,,,0,,"Asia/Tokyo"
"P3743",,"近ヶ坂入口","",35.562853,138.893873,,,0,,"Asia/Tokyo"
"P3742",,"金井","",35.562742,138.897247,,,0,,"Asia/Tokyo"
"P3741",,"金井入口","",35.563355,138.899463,,,0,,"Asia/Tokyo"
"P3740",,"羽根子入口","",35.563791,138.901699,,,0,,"Asia/Tokyo"
"P4089",,"大野","",35.566244,138.859152,,,0,,"Asia/Tokyo"
"P3755",,"つるぎ上","",35.566322,138.852226,,,0,,"Asia/Tokyo"
"P3756",,"平山下","",35.566588,138.849005,,,0,,"Asia/Tokyo"
"P3757",,"一の橋","",35.568397,138.840784,,,0,,"Asia/Tokyo"
"P3758",,"高畑","",35.567998,138.836060,,,0,,"Asia/Tokyo"
"P3759",,"宝鉱山","",35.566639,138.833539,,,0,,"Asia/Tokyo"
"P1390",,"富士山駅(4番)","",35.483845,138.795040,,,0,"S972","Asia/Tokyo"
"P1391",,"松山","",35.484493,138.793116,,,0,,"Asia/Tokyo"
"P1392",,"警察署前","",35.485268,138.788556,,,0,,"Asia/Tokyo"
"P1393",,"剣丸尾","",35.487826,138.784433,,,0,,"Asia/Tokyo"
"P1394",,"富士急ハイランド（１番）","",35.489992,138.781078,,,0,,"Asia/Tokyo"
"P1395",,"赤坂","",35.491304,138.780198,,,0,,"Asia/Tokyo"
"P1396",,"渡辺整形外科前","",35.493482,138.778589,,,0,,"Asia/Tokyo"
"P1397",,"富士見台","",35.495504,138.776784,,,0,,"Asia/Tokyo"
"P1398",,"船津入口","",35.496967,138.773554,,,0,,"Asia/Tokyo"
"P1399",,"河口湖駅(5番)","",35.498474,138.768576,,,0,"S984","Asia/Tokyo"
"P1400",,"河口湖商店街","",35.502037,138.767715,,,0,,"Asia/Tokyo"
"P1401",,"みはらし前","",35.503365,138.769906,,,0,,"Asia/Tokyo"
"P1402",,"遊覧船のりば","",35.503704,138.770491,,,0,,"Asia/Tokyo"
"P1403",,"遊覧船ロープウェイ入口","",35.504625,138.771698,,,0,,"Asia/Tokyo"
"P1404",,"浅川","",35.509994,138.774399,,,0,,"Asia/Tokyo"
"P1405",,"浅川温泉街","",35.511966,138.774458,,,0,,"Asia/Tokyo"
"P1406",,"湖山亭うぶや前","",35.512621,138.768842,,,0,,"Asia/Tokyo"
"P1407",,"産屋ヶ崎","",35.512771,138.767377,,,0,,"Asia/Tokyo"
"P1408",,"河口湖美術館前","",35.520172,138.772594,,,0,,"Asia/Tokyo"
"P1409",,"開田碑前","",35.524911,138.773755,,,0,,"Asia/Tokyo"
"P1410",,"渡船場入口","",35.526459,138.773506,,,0,,"Asia/Tokyo"
"P1411",,"河口局前","",35.529537,138.773246,,,0,,"Asia/Tokyo"
"P1412",,"河口駐在所","",35.531281,138.772304,,,0,,"Asia/Tokyo"
"P1413",,"大桧","",35.532167,138.771647,,,0,,"Asia/Tokyo"
"P1414",,"河口湖野猿公園前","",35.535625,138.770537,,,0,,"Asia/Tokyo"
"P1415",,"三ツ峠入口","",35.545575,138.768514,,,0,,"Asia/Tokyo"
"P1418",,"藤の木","",35.575490,138.763885,,,0,,"Asia/Tokyo"
"P1419",,"藤の木下","",35.581157,138.757772,,,0,,"Asia/Tokyo"
"P1420",,"御坂スキー場","",35.584107,138.753006,,,0,,"Asia/Tokyo"
"P1421",,"三ツ星","",35.584224,138.752126,,,0,,"Asia/Tokyo"
"P1423",,"新田","",35.586445,138.743860,,,0,,"Asia/Tokyo"
"P1424",,"立沢上","",35.589398,138.732133,,,0,,"Asia/Tokyo"
"P1425",,"立沢","",35.590925,138.726962,,,0,,"Asia/Tokyo"
"P1426",,"横川","",35.593063,138.718470,,,0,,"Asia/Tokyo"
"P1427",,"十郎橋","",35.596901,138.713792,,,0,,"Asia/Tokyo"
"P1428",,"桧峯神社前","",35.598742,138.711925,,,0,,"Asia/Tokyo"
"P1429",,"新宿","",35.600692,138.709168,,,0,,"Asia/Tokyo"
"P1430",,"上黒駒","",35.604041,138.706405,,,0,,"Asia/Tokyo"
"P1431",,"道場","",35.606161,138.704554,,,0,,"Asia/Tokyo"
"P1432",,"駒留","",35.610204,138.702006,,,0,,"Asia/Tokyo"
"P1433",,"御坂東小学校","",35.611752,138.699769,,,0,,"Asia/Tokyo"
"P1434",,"清水","",35.613388,138.697334,,,0,,"Asia/Tokyo"
"P1435",,"御坂ゴルフ場入口","",35.616711,138.692581,,,0,,"Asia/Tokyo"
"P109",,"石和温泉駅入口","",35.650156,138.637019,,,0,"S61","Asia/Tokyo"
"P1161",,"城東三丁目","",35.660391,138.582391,,http://yamanashikotsu.co.jp/jikoku/467.htm,0,,"Asia/Tokyo"
"P2587",,"河口湖商店街","",35.501216,138.766634,,,0,,"Asia/Tokyo"
"P2588",,"河口湖商店街西","",35.500935,138.764598,,,0,,"Asia/Tokyo"
"P2589",,"乳ヶ崎東口","",35.502688,138.758220,,,0,,"Asia/Tokyo"
"P2590",,"大木","",35.505097,138.758974,,,0,,"Asia/Tokyo"
"P2310",,"石和温泉駅入口","",35.650159,138.636987,,,0,"S61","Asia/Tokyo"
"P99",,"十郎橋西","",35.658270,138.613469,,http://yamanashikotsu.co.jp/jikoku/2509.htm,0,,"Asia/Tokyo"
"P97",,"横根町","",35.657610,138.609325,,,0,,"Asia/Tokyo"
"P94",,"山梨学院大学附属中学・高校","",35.661618,138.600064,,,0,,"Asia/Tokyo"
"P92",,"かいてらす・善光寺北","",35.667807,138.592170,,,0,,"Asia/Tokyo"
"P85",,"元紺屋","",35.671108,138.574709,,http://yamanashikotsu.co.jp/jikoku/2505.htm,0,,"Asia/Tokyo"
"P4387",,"富士山駅(5番)","",35.483950,138.795166,,,0,"S972","Asia/Tokyo"
"P4906",,"河口湖駅","",35.498624,138.768514,,,0,,"Asia/Tokyo"
"P2662",,"富士河口湖高校","",35.488123,138.769649,,,0,,"Asia/Tokyo"
"P2663",,"ビジターセンター","",35.485419,138.770051,,,0,,"Asia/Tokyo"
"P2664",,"富士スバルランド","",35.458273,138.761264,,,0,,"Asia/Tokyo"
"P2665",,"環境科学研究所入口","",35.453012,138.759046,,,0,,"Asia/Tokyo"
"P2666",,"三合目","",35.410988,138.699641,,,0,,"Asia/Tokyo"
"P4687",,"四合目大沢駐車場","",35.374166,138.692801,,,0,,"Asia/Tokyo"
"P2667",,"御庭","",35.388650,138.706365,,,0,,"Asia/Tokyo"
"P2668",,"富士山五合目","",35.394234,138.732664,,,0,,"Asia/Tokyo"
"P3219",,"山中湖平野","",35.426350,138.903687,,,0,,"Asia/Tokyo"
"P3218",,"平野屋前","",35.422302,138.903880,,,0,,"Asia/Tokyo"
"P3217",,"山中湖交流プラザ","",35.419491,138.903510,,,0,,"Asia/Tokyo"
"P3216",,"三国山ハイキングコース入口","",35.417222,138.902818,,,0,,"Asia/Tokyo"
"P3215",,"慶應山荘前","",35.415696,138.899052,,,0,,"Asia/Tokyo"
"P3214",,"撫岳荘前","",35.414411,138.895233,,,0,,"Asia/Tokyo"
"P3213",,"湖山荘前","",35.412960,138.891612,,,0,,"Asia/Tokyo"
"P3212",,"小田急フォレストコテージ前","",35.411115,138.888361,,,0,,"Asia/Tokyo"
"P3211",,"クリスマスの森入口","",35.409143,138.885373,,,0,,"Asia/Tokyo"
"P3210",,"京王リップル山中湖","",35.408006,138.881183,,,0,,"Asia/Tokyo"
"P3209",,"山中湖ガーデン前","",35.407822,138.878753,,,0,,"Asia/Tokyo"
"P3221",,"山中湖旭日丘","",35.406965,138.875840,,,0,,"Asia/Tokyo"
"P3207",,"文学の森公園前","",35.407936,138.869612,,,0,,"Asia/Tokyo"
"P3206",,"ゴルフ場入口","",35.408155,138.867692,,,0,,"Asia/Tokyo"
"P3205",,"山中湖村役場前","",35.410830,138.862016,,,0,,"Asia/Tokyo"
"P3220",,"一之橋","",35.415683,138.858030,,,0,,"Asia/Tokyo"
"P3204",,"ＴＢＳ寮前","",35.419644,138.853975,,,0,,"Asia/Tokyo"
"P3203",,"山中湖郵便局入口","",35.421025,138.852296,,,0,,"Asia/Tokyo"
"P3202",,"観光船のりば","",35.423198,138.849748,,,0,,"Asia/Tokyo"
"P3201",,"富士山山中湖（ホテルマウント富士入口）","",35.425637,138.849335,,,0,,"Asia/Tokyo"
"P3200",,"花の都公園入口","",35.429219,138.845443,,,0,,"Asia/Tokyo"
"P3338",,"梨ヶ原","",35.433352,138.842264,,,0,,"Asia/Tokyo"
"P3335",,"かんぽの宿山中湖入口","",35.438794,138.842522,,,0,,"Asia/Tokyo"
"P3334",,"ファナック前","",35.447814,138.842919,,,0,,"Asia/Tokyo"
"P3337",,"柳原","",35.452149,138.840923,,,0,,"Asia/Tokyo"
"P3336",,"出口池","",35.455195,138.836417,,,0,,"Asia/Tokyo"
"P3333",,"膳棚","",35.457367,138.832407,,,0,,"Asia/Tokyo"
"P3332",,"忍野八海","",35.458789,138.830806,,,0,,"Asia/Tokyo"
"P3183",,"えびす屋前","",35.460185,138.829293,,,0,,"Asia/Tokyo"
"P3182",,"下村","",35.458433,138.826683,,,0,,"Asia/Tokyo"
"P3181",,"さかな公園","",35.457406,138.824886,,,0,,"Asia/Tokyo"
"P3180",,"忍野温泉前","",35.456447,138.822022,,,0,,"Asia/Tokyo"
"P3179",,"忍野　しのびの里","",35.455429,138.816655,,,0,,"Asia/Tokyo"
"P3178",,"忍野入口","",35.453473,138.811642,,,0,,"Asia/Tokyo"
"P3177",,"サンパークふじ前","",35.457094,138.805317,,,0,,"Asia/Tokyo"
"P3176",,"セメ草","",35.461727,138.804024,,,0,,"Asia/Tokyo"
"P2625",,"新屋","",35.467350,138.801814,,,0,,"Asia/Tokyo"
"P2624",,"新屋公民館入口","",35.470431,138.799346,,,0,,"Asia/Tokyo"
"P2579",,"吉田小学校入口","",35.474677,138.799827,,,0,,"Asia/Tokyo"
"P2574",,"吉田上宿","",35.476826,138.800985,,,0,,"Asia/Tokyo"
"P2575",,"吉田商業入口","",35.479367,138.802316,,,0,,"Asia/Tokyo"
"P2578",,"吉田郵便局前","",35.483123,138.804384,,,0,,"Asia/Tokyo"
"P2567",,"お茶屋町","",35.484414,138.805094,,,0,,"Asia/Tokyo"
"P2566",,"吉田高校前","",35.486109,138.806165,,,0,,"Asia/Tokyo"
"P2564",,"市役所前","",35.487504,138.806961,,,0,,"Asia/Tokyo"
"P2565",,"都留信前","",35.489171,138.804416,,,0,,"Asia/Tokyo"
"P3330",,"公園橋","",35.490276,138.801894,,,0,,"Asia/Tokyo"
"P3331",,"月江寺駅前","",35.492503,138.798746,,,0,,"Asia/Tokyo"
"P4347",,"芦川農産物直売所","",35.552432,138.688665,,,0,,"Asia/Tokyo"
"P4346",,"すずらんの里入口","",35.550214,138.703219,,,0,,"Asia/Tokyo"
"P4345",,"大石峠","",35.528118,138.715718,,,0,,"Asia/Tokyo"
"P2606",,"プチペンション村","",35.522766,138.724725,,,0,,"Asia/Tokyo"
"P2605",,"湯口","",35.525012,138.729110,,,0,,"Asia/Tokyo"
"P2604",,"菅記念研修館前","",35.524462,138.731824,,,0,,"Asia/Tokyo"
"P2603",,"馬場久保","",35.524455,138.737084,,,0,,"Asia/Tokyo"
"P2602",,"吉原","",35.520751,138.741124,,,0,,"Asia/Tokyo"
"P2601",,"真如苑前","",35.521816,138.741649,,,0,,"Asia/Tokyo"
"P2600",,"大石荘前","",35.522875,138.743428,,,0,,"Asia/Tokyo"
"P2599",,"あけぼの荘前","",35.523272,138.744431,,,0,,"Asia/Tokyo"
"P2598",,"学校前","",35.524228,138.747169,,,0,,"Asia/Tokyo"
"P2597",,"北浜荘前","",35.523805,138.749573,,,0,,"Asia/Tokyo"
"P2596",,"サニーデ前長崎公園入口","",35.522663,138.754277,,,0,,"Asia/Tokyo"
"P2595",,"紅富士荘前","",35.525492,138.760138,,,0,,"Asia/Tokyo"
"P2594",,"広瀬・久保田一竹記念館前","",35.526047,138.761425,,,0,,"Asia/Tokyo"
"P2593",,"西川","",35.528605,138.766103,,,0,,"Asia/Tokyo"
"P2592",,"河口小学校入口","",35.528994,138.768721,,,0,,"Asia/Tokyo"
"P2582",,"河口湖駅(6番)","",35.498491,138.768324,,,0,"S984","Asia/Tokyo"
"P1536",,"富士山駅(2番)","",35.483818,138.795310,,,0,"S972","Asia/Tokyo"
"P4134",,"金鳥居","",35.483134,138.798826,,,0,,"Asia/Tokyo"
"P4133",,"合同庁舎入口","",35.481107,138.802729,,,0,,"Asia/Tokyo"
"P2585",,"富士急ハイランド（２番）","",35.489902,138.781236,,,0,,"Asia/Tokyo"
"P2586",,"富士山駅(3番)","",35.483827,138.795229,,,0,"S972","Asia/Tokyo"
"P1537",,"金鳥居","",35.484023,138.798536,,,0,,"Asia/Tokyo"
"P1538",,"中曽根","",35.485189,138.799389,,,0,,"Asia/Tokyo"
"P4619",,"頓堀橋","",35.486016,138.801264,,,0,,"Asia/Tokyo"
"P4621",,"お茶屋町西","",35.485311,138.803166,,,0,,"Asia/Tokyo"
"P4623",,"吉田高校南口","",35.483642,138.806281,,,0,,"Asia/Tokyo"
"P4625",,"ケーヨーデーツー前","",35.482132,138.808820,,,0,,"Asia/Tokyo"
"P4118",,"お茶屋町東","",35.480618,138.811140,,,0,,"Asia/Tokyo"
"P4627",,"明見小橋下","",35.478772,138.828727,,,0,,"Asia/Tokyo"
"P4683",,"富士見橋南","",35.462927,138.842148,,,0,,"Asia/Tokyo"
"P3189",,"忍野郵便局前","",35.459831,138.845091,,,0,,"Asia/Tokyo"
"P3190",,"役場前","",35.459731,138.848020,,,0,,"Asia/Tokyo"
"P3191",,"内野赤坂","",35.459001,138.852682,,,0,,"Asia/Tokyo"
"P3192",,"承天寺","",35.458393,138.855246,,,0,,"Asia/Tokyo"
"P3193",,"内野","",35.457107,138.858170,,,0,,"Asia/Tokyo"
"P3199",,"花の都公園","",35.440382,138.850837,,,0,,"Asia/Tokyo"
"P3208",,"山中湖旭日丘","",35.406878,138.876184,,,0,,"Asia/Tokyo"
"P3348",,"富士見通","",35.405286,138.876044,,,0,,"Asia/Tokyo"
"P3349",,"経済クラブ","",35.403703,138.875433,,,0,,"Asia/Tokyo"
"P3350",,"富士急別荘地管理事務所前","",35.401675,138.873351,,,0,,"Asia/Tokyo"
"P3351",,"中区一丁目","",35.400153,138.866925,,,0,,"Asia/Tokyo"
"P3352",,"日大セミナーハウス前","",35.397289,138.866860,,,0,,"Asia/Tokyo"
"P3353",,"籠坂峠","",35.394599,138.864082,,,0,,"Asia/Tokyo"
"P3354",,"駒止松","",35.381270,138.858889,,,0,,"Asia/Tokyo"
"P3355",,"高原上","",35.372568,138.860224,,,0,,"Asia/Tokyo"
"P3356",,"富士高原ゴルフ場","",35.368204,138.858036,,,0,,"Asia/Tokyo"
"P4362",,"道の駅すばしり","",35.363298,138.861043,,,0,,"Asia/Tokyo"
"P3357",,"須走浅間神社前","",35.362264,138.865106,,,0,,"Asia/Tokyo"
"P3358",,"須走中","",35.361957,138.868494,,,0,,"Asia/Tokyo"
"P3359",,"須走車庫前","",35.360940,138.870728,,,0,,"Asia/Tokyo"
"P3360",,"須走入口","",35.357226,138.870540,,,0,,"Asia/Tokyo"
"P3361",,"東富士リサーチパーク入口","",35.353304,138.874631,,,0,,"Asia/Tokyo"
"P3362",,"滝ヶ原入口","",35.347051,138.879324,,,0,,"Asia/Tokyo"
"P3363",,"長尾平","",35.341490,138.886719,,,0,,"Asia/Tokyo"
"P4630",,"馬術・スポーツセンター入口","",35.330999,138.884216,,,0,,"Asia/Tokyo"
"P4632",,"滝ヶ原東","",35.322711,138.881582,,,0,,"Asia/Tokyo"
"P4634",,"滝ヶ原下","",35.319856,138.885487,,,0,,"Asia/Tokyo"
"P4636",,"山王入口","",35.319286,138.886760,,,0,,"Asia/Tokyo"
"P4638",,"大胡山","",35.317608,138.890370,,,0,,"Asia/Tokyo"
"P4640",,"大胡山下","",35.316755,138.892026,,,0,,"Asia/Tokyo"
"P4642",,"中畑上","",35.315230,138.894266,,,0,,"Asia/Tokyo"
"P4644",,"中畑","",35.314113,138.896657,,,0,,"Asia/Tokyo"
"P4645",,"西中前","",35.313535,138.900020,,,0,,"Asia/Tokyo"
"P4648",,"第二宿舎","",35.313104,138.901368,,,0,,"Asia/Tokyo"
"P4650",,"玉穂支所入口","",35.310853,138.905878,,,0,,"Asia/Tokyo"
"P4652",,"ませ口上","",35.309618,138.907817,,,0,,"Asia/Tokyo"
"P4653",,"ませ口","",35.308024,138.913020,,,0,,"Asia/Tokyo"
"P4656",,"立道","",35.306443,138.918155,,,0,,"Asia/Tokyo"
"P4657",,"立道下","",35.305588,138.920526,,,0,,"Asia/Tokyo"
"P4660",,"川島田入口","",35.304980,138.922424,,,0,,"Asia/Tokyo"
"P4661",,"丸太橋","",35.304235,138.924807,,,0,,"Asia/Tokyo"
"P4663",,"若宮橋","",35.302654,138.928677,,,0,,"Asia/Tokyo"
"P4666",,"新橋銀座","",35.301310,138.931067,,,0,,"Asia/Tokyo"
"P3377",,"御殿場駅２番のりば","",35.300059,138.933741,,,0,,"Asia/Tokyo"
"P4667",,"四反田","",35.298702,138.934612,,,0,,"Asia/Tokyo"
"P4668",,"富士病院","",35.298296,138.935330,,,0,,"Asia/Tokyo"
"P4670",,"南高入口","",35.296608,138.938224,,,0,,"Asia/Tokyo"
"P4671",,"新堀","",35.295411,138.940374,,,0,,"Asia/Tokyo"
"P4672",,"便船塚","",35.293822,138.943338,,,0,,"Asia/Tokyo"
"P4673",,"公民館前","",35.289712,138.944333,,,0,,"Asia/Tokyo"
"P4674",,"地蔵堂","",35.288407,138.946370,,,0,,"Asia/Tokyo"
"P4675",,"秩父宮記念公園","",35.289354,138.950167,,,0,,"Asia/Tokyo"
"P4678",,"東山荘入口","",35.290070,138.951868,,,0,,"Asia/Tokyo"
"P4680",,"湖水前","",35.292944,138.955392,,,0,,"Asia/Tokyo"
"P4682",,"東山旧岸邸前","",35.295967,138.958472,,,0,,"Asia/Tokyo"
"P3438",,"御殿場プレミアムアウトレット","",35.307344,138.962323,,,0,,"Asia/Tokyo"
"P4681",,"東山旧岸邸前","",35.295478,138.958086,,,0,,"Asia/Tokyo"
"P4679",,"湖水前","",35.292830,138.955459,,,0,,"Asia/Tokyo"
"P4677",,"東山荘入口","",35.289879,138.951758,,,0,,"Asia/Tokyo"
"P4676",,"秩父宮記念公園","",35.289258,138.950194,,,0,,"Asia/Tokyo"
"P4669",,"富士病院","",35.298270,138.935234,,,0,,"Asia/Tokyo"
"P4665",,"新橋銀座","",35.301501,138.930635,,,0,,"Asia/Tokyo"
"P4664",,"若宮橋","",35.302426,138.929020,,,0,,"Asia/Tokyo"
"P4662",,"丸太橋","",35.303938,138.925493,,,0,,"Asia/Tokyo"
"P4659",,"川島田入口","",35.304930,138.922367,,,0,,"Asia/Tokyo"
"P4658",,"立道下","",35.305306,138.921105,,,0,,"Asia/Tokyo"
"P4655",,"立道","",35.306368,138.918149,,,0,,"Asia/Tokyo"
"P4654",,"ませ口","",35.307901,138.913545,,,0,,"Asia/Tokyo"
"P4651",,"ませ口上","",35.309628,138.907603,,,0,,"Asia/Tokyo"
"P4649",,"玉穂支所入口","",35.311087,138.905284,,,0,,"Asia/Tokyo"
"P4647",,"第二宿舎","",35.313083,138.901241,,,0,,"Asia/Tokyo"
"P4646",,"西中前","",35.313447,138.900094,,,0,,"Asia/Tokyo"
"P4643",,"中畑","",35.314385,138.895453,,,0,,"Asia/Tokyo"
"P4641",,"中畑上","",35.315284,138.894082,,,0,,"Asia/Tokyo"
"P4639",,"大胡山下","",35.316671,138.892011,,,0,,"Asia/Tokyo"
"P4637",,"大胡山","",35.317617,138.890228,,,0,,"Asia/Tokyo"
"P4635",,"山王入口","",35.319546,138.886041,,,0,,"Asia/Tokyo"
"P4633",,"滝ヶ原下","",35.320009,138.884972,,,0,,"Asia/Tokyo"
"P4631",,"滝ヶ原東","",35.322702,138.881516,,,0,,"Asia/Tokyo"
"P4629",,"馬術・スポーツセンター入口","",35.331364,138.884413,,,0,,"Asia/Tokyo"
"P4626",,"明見小橋下","",35.479773,138.826638,,,0,,"Asia/Tokyo"
"P4624",,"ケーヨーデーツー前","",35.482011,138.808705,,,0,,"Asia/Tokyo"
"P4622",,"吉田高校南口","",35.483509,138.806120,,,0,,"Asia/Tokyo"
"P4620",,"お茶屋町西","",35.485140,138.803089,,,0,,"Asia/Tokyo"
"P4618",,"頓堀橋","",35.485857,138.801182,,,0,,"Asia/Tokyo"
"P4091",,"中曽根","",35.485342,138.799540,,,0,,"Asia/Tokyo"
"P4092",,"金鳥居","",35.483931,138.798526,,,0,,"Asia/Tokyo"
"P3169",,"金鳥居公園前","",35.482267,138.797276,,,0,,"Asia/Tokyo"
"P3170",,"北稜高校入口","",35.480629,138.796063,,,0,,"Asia/Tokyo"
"P3171",,"コミュニティーセンター入口","",35.478543,138.794462,,,0,,"Asia/Tokyo"
"P3172",,"横町","",35.475822,138.792402,,,0,,"Asia/Tokyo"
"P2623",,"浅間神社前","",35.473181,138.794948,,,0,,"Asia/Tokyo"
"P3437",,"忍野入口","",35.452886,138.811709,,,0,,"Asia/Tokyo"
"P3431",,"北富士駐屯地入口","",35.447639,138.820061,,,0,,"Asia/Tokyo"
"P3433",,"中道入口","",35.444329,138.826260,,,0,,"Asia/Tokyo"
"P3434",,"梨ヶ原西","",35.441184,138.832405,,,0,,"Asia/Tokyo"
"P3364",,"富士平原ゴルフ場","",35.338742,138.891580,,,0,,"Asia/Tokyo"
"P3365",,"水土野","",35.336024,138.895388,,,0,,"Asia/Tokyo"
"P3366",,"水土野下","",35.331713,138.901949,,,0,,"Asia/Tokyo"
"P3367",,"上小林入口","",35.331184,138.903510,,,0,,"Asia/Tokyo"
"P3368",,"仁杉","",35.324028,138.909298,,,0,,"Asia/Tokyo"
"P3369",,"大橋（御殿場市）","",35.321341,138.911819,,,0,,"Asia/Tokyo"
"P3370",,"山口","",35.315856,138.917586,,,0,,"Asia/Tokyo"
"P3371",,"権現堂","",35.313978,138.920478,,,0,,"Asia/Tokyo"
"P3372",,"ぐみ沢","",35.309846,138.923192,,,0,,"Asia/Tokyo"
"P3373",,"図書館前","",35.306882,138.928868,,,0,,"Asia/Tokyo"
"P3374",,"湯沢","",35.303940,138.933299,,,0,,"Asia/Tokyo"
"P3375",,"六角堂","",35.302610,138.932719,,,0,,"Asia/Tokyo"
"P2584",,"河口湖駅(1番)","",35.498347,138.768772,,,0,"S984","Asia/Tokyo"
"P3168",,"山梨赤十字病院","",35.485545,138.767881,,,0,,"Asia/Tokyo"
"P1416",,"三ツ峠登山口","",35.556126,138.792032,,,0,,"Asia/Tokyo"
"P1417",,"天下茶屋","",35.556726,138.783712,,,0,,"Asia/Tokyo"
"P4135",,"ふじやま温泉","",35.483744,138.779109,,,0,,"Asia/Tokyo"
"P4348",,"ハイランドバスターミナル","",35.484681,138.776856,,,0,,"Asia/Tokyo"
"P4136",,"県立富士ビジターセンター入口","",35.486406,138.770757,,,0,,"Asia/Tokyo"
"P3184",,"区会事務所","",35.461491,138.830656,,,0,,"Asia/Tokyo"
"P3185",,"お宮橋","",35.462614,138.832362,,,0,,"Asia/Tokyo"
"P3186",,"忍野八海入口","",35.461987,138.833566,,,0,,"Asia/Tokyo"
"P3187",,"神鶴橋","",35.460043,138.836498,,,0,,"Asia/Tokyo"
"P3188",,"土橋","",35.459953,138.841395,,,0,,"Asia/Tokyo"
"P3445",,"石割山ハイキングコース入口","",35.430546,138.904776,,,0,,"Asia/Tokyo"
"P3447",,"上原","",35.434340,138.911653,,,0,,"Asia/Tokyo"
"P3448",,"つくし別荘地入口","",35.438431,138.918284,,,0,,"Asia/Tokyo"
"P3449",,"山伏峠","",35.451835,138.930402,,,0,,"Asia/Tokyo"
"P3450",,"道志ます釣り場前","",35.475286,138.950610,,,0,,"Asia/Tokyo"
"P3444",,"山中湖交流プラザ","",35.419727,138.902099,,,0,,"Asia/Tokyo"
"P3298",,"役場入口","",35.498729,138.756680,,,0,,"Asia/Tokyo"
"P3299",,"乳ヶ崎","",35.502872,138.757276,,,0,,"Asia/Tokyo"
"P3301",,"山梨宝石博物館・河口湖","",35.505924,138.763399,,,0,,"Asia/Tokyo"
"P3300",,"河口湖ハーブ館","",35.507542,138.762131,,,0,,"Asia/Tokyo"
"P3309",,"富士の宿おおはし","",35.508959,138.759086,,,0,,"Asia/Tokyo"
"P3310",,"八木崎公園","",35.510675,138.755900,,,0,,"Asia/Tokyo"
"P3311",,"河口湖ミューズ館入口","",35.510365,138.751893,,,0,,"Asia/Tokyo"
"P3312",,"若草の宿丸栄","",35.511317,138.750729,,,0,,"Asia/Tokyo"
"P3313",,"富士御室浅間神社","",35.509911,138.744994,,,0,,"Asia/Tokyo"
"P3314",,"敷島の松（富士ビューホテル）","",35.509376,138.739308,,,0,,"Asia/Tokyo"
"P3329",,"道の駅かつやま","",35.504612,138.734043,,,0,,"Asia/Tokyo"
"P2641",,"足和田キャンプ場・天神下","",35.501487,138.726042,,,0,,"Asia/Tokyo"
"P2645",,"長浜","",35.507446,138.714983,,,0,,"Asia/Tokyo"
"P2646",,"足和田支所前","",35.506885,138.711912,,,0,,"Asia/Tokyo"
"P3316",,"毛無山登山口","",35.505695,138.706091,,,0,,"Asia/Tokyo"
"P3317",,"西湖東口","",35.504904,138.702130,,,0,,"Asia/Tokyo"
"P3318",,"西湖津原浜","",35.500029,138.699364,,,0,,"Asia/Tokyo"
"P3319",,"こつぶら","",35.496539,138.695499,,,0,,"Asia/Tokyo"
"P3320",,"駒形","",35.496218,138.692586,,,0,,"Asia/Tokyo"
"P3321",,"三湖台下","",35.491997,138.685213,,,0,,"Asia/Tokyo"
"P2661",,"西湖民宿","",35.492209,138.677153,,,0,,"Asia/Tokyo"
"P2660",,"コウモリ穴入口","",35.494421,138.671282,,,0,,"Asia/Tokyo"
"P2658",,"根場民宿","",35.501522,138.662310,,,0,,"Asia/Tokyo"
"P3323",,"西湖いやしの里根場","",35.503147,138.661400,,,0,,"Asia/Tokyo"
"P3324",,"西湖野鳥の森公園","",35.498653,138.653163,,,0,,"Asia/Tokyo"
"P3325",,"御殿庭","",35.488313,138.644382,,,0,,"Asia/Tokyo"
"P3148",,"風穴","",35.479439,138.659139,,,0,,"Asia/Tokyo"
"P3326",,"竜宮洞穴入口","",35.486478,138.666977,,,0,,"Asia/Tokyo"
"P3327",,"根場入口","",35.501579,138.663232,,,0,,"Asia/Tokyo"
"P2655",,"大路原","",35.501712,138.673036,,,0,,"Asia/Tokyo"
"P3328",,"十二ヶ岳登山口","",35.503470,138.682829,,,0,,"Asia/Tokyo"
"P2650",,"西湖前浜","",35.505686,138.697404,,,0,,"Asia/Tokyo"
"P2633",,"乳ヶ崎","",35.504690,138.754637,,,0,,"Asia/Tokyo"
"P3198",,"内野","",35.457227,138.858562,,,0,,"Asia/Tokyo"
"P2619",,"西原","",35.482324,138.786013,,,0,,"Asia/Tokyo"
"P2620",,"西原上","",35.481335,138.784259,,,0,,"Asia/Tokyo"
"P2583",,"河口湖駅(4番)","",35.498465,138.768753,,,0,"S984","Asia/Tokyo"
"P2634",,"林","",35.505422,138.753140,,,0,,"Asia/Tokyo"
"P2635",,"小立入口","",35.506555,138.750176,,,0,,"Asia/Tokyo"
"P2636",,"小立","",35.506804,138.748583,,,0,,"Asia/Tokyo"
"P2637",,"冨士御室浅間神社入口","",35.506359,138.746282,,,0,,"Asia/Tokyo"
"P2638",,"勝山民宿村","",35.505450,138.740995,,,0,,"Asia/Tokyo"
"P2639",,"勝山","",35.504411,138.739343,,,0,,"Asia/Tokyo"
"P2770",,"大嵐入口","",35.498483,138.734319,,,0,,"Asia/Tokyo"
"P2771",,"大嵐","",35.494735,138.731031,,,0,,"Asia/Tokyo"
"P2772",,"大田和","",35.489540,138.727721,,,0,,"Asia/Tokyo"
"P2773",,"駐在所前","",35.483988,138.724507,,,0,,"Asia/Tokyo"
"P2774",,"一本木","",35.484683,138.718242,,,0,,"Asia/Tokyo"
"P2775",,"境野","",35.481806,138.711496,,,0,,"Asia/Tokyo"
"P2776",,"鳴沢小学校前","",35.481055,138.707159,,,0,,"Asia/Tokyo"
"P2777",,"堀の内","",35.480472,138.703860,,,0,,"Asia/Tokyo"
"P2778",,"鳴沢","",35.479991,138.701140,,,0,,"Asia/Tokyo"
"P2779",,"樹形溶岩前","",35.479544,138.696433,,,0,,"Asia/Tokyo"
"P2780",,"富士緑の休暇村","",35.477455,138.688222,,,0,,"Asia/Tokyo"
"P3146",,"紅葉台入口","",35.478548,138.675501,,,0,,"Asia/Tokyo"
"P3147",,"氷穴","",35.477840,138.664836,,,0,,"Asia/Tokyo"
"P3149",,"西湖入口","",35.487970,138.644333,,,0,,"Asia/Tokyo"
"P3150",,"赤池","",35.485410,138.619164,,,0,,"Asia/Tokyo"
"P3151",,"湖畔荘キャンプ場","",35.489035,138.611847,,,0,,"Asia/Tokyo"
"P3152",,"精進","",35.494508,138.609127,,,0,,"Asia/Tokyo"
"P3153",,"精進レイクホテル前","",35.493718,138.607228,,,0,,"Asia/Tokyo"
"P3154",,"ふじみ荘前","",35.491896,138.603966,,,0,,"Asia/Tokyo"
"P3155",,"山田屋ホテル前","",35.491442,138.602952,,,0,,"Asia/Tokyo"
"P3156",,"パノラマ台下","",35.490429,138.602346,,,0,,"Asia/Tokyo"
"P3157",,"精進キャンプ場","",35.489040,138.602840,,,0,,"Asia/Tokyo"
"P3158",,"はつかり荘前","",35.486131,138.603773,,,0,,"Asia/Tokyo"
"P3159",,"宇の岬トンネル","",35.485117,138.605796,,,0,,"Asia/Tokyo"
"P3160",,"精進湖民宿村","",35.480199,138.612522,,,0,,"Asia/Tokyo"
"P3161",,"精進湖入口","",35.479598,138.609529,,,0,,"Asia/Tokyo"
"P3162",,"上九一色中学校入口","",35.467001,138.609033,,,0,,"Asia/Tokyo"
"P3163",,"本栖湖入口","",35.462665,138.605643,,,0,,"Asia/Tokyo"
"P3164",,"本栖湖","",35.463104,138.604106,,,0,,"Asia/Tokyo"
"P3165",,"本栖湖レストハウス","",35.464886,138.602459,,,0,,"Asia/Tokyo"
"P3249",,"北の山","",35.467691,138.600088,,,0,,"Asia/Tokyo"
"P3250",,"本栖隧道","",35.471654,138.596810,,,0,,"Asia/Tokyo"
"P3251",,"大久保","",35.476997,138.593688,,,0,,"Asia/Tokyo"
"P3252",,"浩庵荘入口","",35.474293,138.575374,,,0,,"Asia/Tokyo"
"P3253",,"中屋敷","",35.475376,138.551829,,,0,,"Asia/Tokyo"
"P3254",,"灯","",35.474210,138.543922,,,0,,"Asia/Tokyo"
"P3255",,"中の倉","",35.474690,138.536557,,,0,,"Asia/Tokyo"
"P3256",,"釜額民宿入口","",35.474004,138.532453,,,0,,"Asia/Tokyo"
"P3257",,"宮の平","",35.474476,138.525404,,,0,,"Asia/Tokyo"
"P3258",,"古関","",35.474445,138.523441,,,0,,"Asia/Tokyo"
"P3259",,"丸畑入口","",35.471763,138.521199,,,0,,"Asia/Tokyo"
"P3260",,"木喰橋","",35.467827,138.512583,,,0,,"Asia/Tokyo"
"P3261",,"大曽里","",35.466796,138.501871,,,0,,"Asia/Tokyo"
"P3262",,"長塩","",35.465009,138.498995,,,0,,"Asia/Tokyo"
"P3263",,"北川","",35.462925,138.490123,,,0,,"Asia/Tokyo"
"P3264",,"市之橋","",35.459962,138.485536,,,0,,"Asia/Tokyo"
"P3265",,"境畑","",35.457520,138.483535,,,0,,"Asia/Tokyo"
"P3266",,"下境畑","",35.453827,138.481856,,,0,,"Asia/Tokyo"
"P3267",,"下部中学校入口","",35.448146,138.479544,,,0,,"Asia/Tokyo"
"P3268",,"身延町下部支所","",35.446521,138.478739,,,0,,"Asia/Tokyo"
"P3269",,"甲斐常葉","",35.444899,138.477114,,,0,,"Asia/Tokyo"
"P3270",,"出口","",35.437671,138.474759,,,0,,"Asia/Tokyo"
"P3271",,"下部温泉駅","",35.425152,138.472576,,,0,,"Asia/Tokyo"
"P3272",,"下部温泉郷","",35.424169,138.475268,,,0,,"Asia/Tokyo"
"P2640",,"奥河口湖入口","",35.503553,138.733504,,,0,,"Asia/Tokyo"
"P2642",,"平浜","",35.502968,138.720229,,,0,,"Asia/Tokyo"
"P2643",,"平浜橋","",35.504070,138.718615,,,0,,"Asia/Tokyo"
"P2644",,"長浜入口","",35.505420,138.715195,,,0,,"Asia/Tokyo"
"P2647",,"西浜学校前","",35.506651,138.710442,,,0,,"Asia/Tokyo"
"P2648",,"文化洞トンネル","",35.505033,138.702972,,,0,,"Asia/Tokyo"
"P2649",,"西湖渡船場入口","",35.505149,138.699887,,,0,,"Asia/Tokyo"
"P2651",,"森下キャンプ場","",35.505817,138.695416,,,0,,"Asia/Tokyo"
"P2652",,"浅原","",35.505418,138.693611,,,0,,"Asia/Tokyo"
"P2653",,"桑留尾","",35.503817,138.684658,,,0,,"Asia/Tokyo"
"P2654",,"観岳園キャンプ場","",35.503300,138.682126,,,0,,"Asia/Tokyo"
"P2656",,"西湖キャンプ場","",35.501155,138.670059,,,0,,"Asia/Tokyo"
"P2657",,"魚眠荘前","",35.501551,138.663833,,,0,,"Asia/Tokyo"
"P2659",,"樹海広場","",35.499334,138.662326,,,0,,"Asia/Tokyo"
"P3432",,"北富士駐屯地正門前","",35.453137,138.824409,,,0,,"Asia/Tokyo"
"P3194",,"針樅林入口","",35.454714,138.857333,,,0,,"Asia/Tokyo"
"P3195",,"上村","",35.453718,138.859484,,,0,,"Asia/Tokyo"
"P3196",,"上村中央","",35.454190,138.861313,,,0,,"Asia/Tokyo"
"P3197",,"天狗社","",35.456134,138.862451,,,0,,"Asia/Tokyo"
"P1539",,"曙町","",35.486978,138.800368,,,0,,"Asia/Tokyo"
"P1540",,"吉高入口","",35.488280,138.801194,,,0,,"Asia/Tokyo"
"P4383",,"北口本宮冨士浅間神社","",35.471675,138.792852,,,0,,"Asia/Tokyo"
"P4384",,"中の茶屋入口","",35.449442,138.776006,,,0,,"Asia/Tokyo"
"P4385",,"中の茶屋","",35.441528,138.770230,,,0,,"Asia/Tokyo"
"P4386",,"馬返","",35.413539,138.758746,,,0,,"Asia/Tokyo"
"P3166",,"富士北稜高校","",35.481645,138.790627,,,0,,"Asia/Tokyo"
"P3167",,"富士緑の休暇村","",35.476748,138.688885,,,0,,"Asia/Tokyo"
"P4397",,"揚村","",35.485909,138.720984,,,0,,"Asia/Tokyo"
"P4398",,"大田和農協前","",35.487791,138.725132,,,0,,"Asia/Tokyo"
"P3346",,"平野西口","",35.428461,138.899374,,,0,,"Asia/Tokyo"
"P3345",,"みさき","",35.423504,138.892690,,,0,,"Asia/Tokyo"
"P3344",,"山中東小学校前","",35.422647,138.892475,,,0,,"Asia/Tokyo"
"P3343",,"ままの森","",35.422254,138.883699,,,0,,"Asia/Tokyo"
"P3342",,"湖北","",35.423950,138.882980,,,0,,"Asia/Tokyo"
"P3347",,"長池親水公園前","",35.427403,138.869226,,,0,,"Asia/Tokyo"
"P3340",,"長池入口","",35.428090,138.863851,,,0,,"Asia/Tokyo"
"P3341",,"大出山入口","",35.428811,138.858733,,,0,,"Asia/Tokyo"
"P4264",,"敷島営業所（甲斐市）","",35.688241,138.521354,,http://www.city.kai.yamanashi.jp/koukyoukoutuu/shimin-bus.html,0,,"Asia/Tokyo"
"P4265",,"敷島中学校西口（甲斐市）","",35.686940,138.523425,,http://www.city.kai.yamanashi.jp/koukyoukoutuu/shimin-bus.html,0,,"Asia/Tokyo"
"P4266",,"事業団住宅入口（甲斐市）","",35.684762,138.522953,,http://www.city.kai.yamanashi.jp/koukyoukoutuu/shimin-bus.html,0,,"Asia/Tokyo"
"P4260",,"金の宮住宅入口（甲斐市）","",35.684848,138.519509,,http://www.city.kai.yamanashi.jp/koukyoukoutuu/shimin-bus.html,0,,"Asia/Tokyo"
"P4261",,"敷島（甲斐市）","",35.685009,138.518345,,http://www.city.kai.yamanashi.jp/koukyoukoutuu/shimin-bus.html,0,,"Asia/Tokyo"
"P4257",,"松島団地（甲斐市）","",35.680817,138.519080,,http://www.city.kai.yamanashi.jp/koukyoukoutuu/shimin-bus.html,0,,"Asia/Tokyo"
"P4320",,"さつきの団地（甲斐市）","",35.677738,138.520142,,http://www.city.kai.yamanashi.jp/koukyoukoutuu/shimin-bus.html,0,,"Asia/Tokyo"
"P4256",,"大下条西（甲斐市）","",35.675235,138.521757,,http://www.city.kai.yamanashi.jp/koukyoukoutuu/shimin-bus.html,0,,"Asia/Tokyo"
"P1259",,"竜王駅（甲斐市）","",35.668436,138.519793,,http://www.city.kai.yamanashi.jp/koukyoukoutuu/shimin-bus.html,0,,"Asia/Tokyo"
"P1260",,"山梨中央銀行竜王支店前（甲斐市）","",35.664544,138.518393,,http://www.city.kai.yamanashi.jp/koukyoukoutuu/shimin-bus.html,0,,"Asia/Tokyo"
"P1261",,"甲斐市役所竜王庁舎（甲斐市）","",35.660469,138.517084,,http://www.city.kai.yamanashi.jp/koukyoukoutuu/shimin-bus.html,0,,"Asia/Tokyo"
"P1262",,"竜王中学校（甲斐市）","",35.654607,138.515794,,http://www.city.kai.yamanashi.jp/koukyoukoutuu/shimin-bus.html,0,,"Asia/Tokyo"
"P1263",,"JA玉幡集荷場（甲斐市）","",35.649877,138.516427,,http://www.city.kai.yamanashi.jp/koukyoukoutuu/shimin-bus.html,0,,"Asia/Tokyo"
"P1264",,"JA玉幡支所（甲斐市）","",35.643251,138.518543,,http://www.city.kai.yamanashi.jp/koukyoukoutuu/shimin-bus.html,0,,"Asia/Tokyo"
"P1265",,"Kai・遊・パーク入口（甲斐市）","",35.639918,138.519731,,http://www.city.kai.yamanashi.jp/koukyoukoutuu/shimin-bus.html,0,,"Asia/Tokyo"
"P1266",,"玉川東区・小作前（甲斐市）","",35.635962,138.521204,,http://www.city.kai.yamanashi.jp/koukyoukoutuu/shimin-bus.html,0,,"Asia/Tokyo"
"P1267",,"玉川西区（甲斐市）","",35.632668,138.522588,,http://www.city.kai.yamanashi.jp/koukyoukoutuu/shimin-bus.html,0,,"Asia/Tokyo"
"P1268",,"玉川団地西（甲斐市）","",35.631916,138.529379,,http://www.city.kai.yamanashi.jp/koukyoukoutuu/shimin-bus.html,0,,"Asia/Tokyo"
"P1269",,"イオンモール甲府昭和前（甲斐市）","",35.623949,138.527862,,http://www.city.kai.yamanashi.jp/koukyoukoutuu/shimin-bus.html,0,,"Asia/Tokyo"
"P1270",,"山梨大学医学部附属病院（甲斐市）","",35.610352,138.539000,,http://www.city.kai.yamanashi.jp/koukyoukoutuu/shimin-bus.html,0,,"Asia/Tokyo"
"P4342",,"シルクふれんどりぃ（中央市コミュニティバス）","",35.561174,138.553366,,,0,,"Asia/Tokyo"
"P4343",,"法乗寺（中央市コミュニティバス）","",35.563452,138.557940,,,0,,"Asia/Tokyo"
"P4344",,"豊富(中央市コミュニティバス)","",35.567000,138.562824,,,0,,"Asia/Tokyo"
"P4198",,"木原（中央市コミュニティバス）","",35.568921,138.558417,,,0,,"Asia/Tokyo"
"P4197",,"中央市役所豊富庁舎（中央市コミュニティバス）","",35.571157,138.556164,,,0,,"Asia/Tokyo"
"P4196",,"豊富診療所（中央市コミュニティバス）","",35.573247,138.554077,,,0,,"Asia/Tokyo"
"P4195",,"作興橋（中央市コミュニティバス）","",35.576297,138.550472,,,0,,"Asia/Tokyo"
"P4194",,"浅利上（中央市コミュニティバス）","",35.580067,138.548219,,,0,,"Asia/Tokyo"
"P4193",,"浅利下（中央市コミュニティバス）","",35.583513,138.547972,,,0,,"Asia/Tokyo"
"P4894",,"道の駅とよとみ（中央市コミュニティバス）","",35.584805,138.545560,,,0,,"Asia/Tokyo"
"P4192",,"志村整骨院前（中央市コミュニティバス）","",35.590458,138.542251,,,0,,"Asia/Tokyo"
"P4191",,"玉穂商会車両置場（中央市コミュニティバス）","",35.591523,138.536273,,,0,,"Asia/Tokyo"
"P4190",,"桜団地入口（中央市コミュニティバス）","",35.592177,138.529610,,,0,,"Asia/Tokyo"
"P4189",,"東花輪駅（中央市コミュニティバス）","",35.594530,138.526424,,,0,,"Asia/Tokyo"
"P4188",,"東団地入口（中央市コミュニティバス）","",35.597102,138.526810,,,0,,"Asia/Tokyo"
"P4187",,"下三條（中央市コミュニティバス）","",35.597399,138.529422,,,0,,"Asia/Tokyo"
"P4186",,"玉穂南小学校（中央市コミュニティバス）","",35.596751,138.536696,,,0,,"Asia/Tokyo"
"P4185",,"ふるさとふれあい広場西（中央市コミュニティバス）","",35.596941,138.543380,,,0,,"Asia/Tokyo"
"P4184",,"パンセ入口（中央市コミュニティバス）","",35.599715,138.545086,,,0,,"Asia/Tokyo"
"P4183",,"中央市役所玉穂庁舎（中央市コミュニティバス）","",35.602218,138.545462,,,0,,"Asia/Tokyo"
"P4182",,"成島交差点南（中央市コミュニティバス）","",35.605647,138.546084,,,0,,"Asia/Tokyo"
"P4326",,"成島交番前（中央市コミュニティバス）","",35.609097,138.544443,,,0,,"Asia/Tokyo"
"P4328",,"イッツモア玉穂ショッピングセンター（中央市コミュニティバス）","",35.610697,138.542211,,,0,,"Asia/Tokyo"
"P4179",,"山梨大学医学部附属病院（中央市コミュニティバス）","",35.610291,138.539094,,,0,,"Asia/Tokyo"
"P4177",,"イオンタウン西（中央市コミュニティバス）","",35.608342,138.540886,,,0,,"Asia/Tokyo"
"P4176",,"下河東（中央市コミュニティバス）","",35.605295,138.535465,,,0,,"Asia/Tokyo"
"P4175",,"小井川駅（中央市コミュニティバス）","",35.604962,138.528832,,,0,,"Asia/Tokyo"
"P4173",,"田富東ランプ（中央市コミュニティバス）","",35.604962,138.525724,,,0,,"Asia/Tokyo"
"P4329",,"妙泉寺北（中央市コミュニティバス）","",35.604992,138.521665,,,0,,"Asia/Tokyo"
"P4331",,"流通センター入口（中央市コミュニティバス）","",35.609910,138.516430,,,0,,"Asia/Tokyo"
"P4164",,"リバーサイドショッピングセンター（中央市コミュニティバス）","",35.615806,138.513139,,,0,,"Asia/Tokyo"
"P4165",,"ほっとらんにんぐ南（中央市コミュニティバス）","",35.613431,138.509539,,,0,,"Asia/Tokyo"
"P4166",,"リバーサイドタウン（中央市コミュニティバス）","",35.610523,138.509654,,,0,,"Asia/Tokyo"
"P4167",,"キッチンハウスつちや（中央市コミュニティバス）","",35.607853,138.510663,,,0,,"Asia/Tokyo"
"P4168",,"田富北小入口（中央市コミュニティバス）","",35.603605,138.512492,,,0,,"Asia/Tokyo"
"P4169",,"中央市役所田富庁舎（中央市コミュニティバス）","",35.600151,138.517208,,,0,,"Asia/Tokyo"
"P4330",,"妙泉寺北（中央市コミュニティバス）","",35.605221,138.521687,,,0,,"Asia/Tokyo"
"P4172",,"田富東ランプ（中央市コミュニティバス）","",35.605337,138.525705,,,0,,"Asia/Tokyo"
"P4174",,"小井川駅（中央市コミュニティバス）","",35.604971,138.529444,,,0,,"Asia/Tokyo"
"P4705",,"芦安（南アルプス市）","",35.638226,138.375636,,http://www.city.minami-alps.yamanashi.jp/newspage?item=/shisei/soshiki-syokai/sogo-seisaku-bu/kotsuseisaku/news/1zawon,0,,"Asia/Tokyo"
"P4706",,"芦安支所（南アルプス市）","",35.637616,138.381550,,http://www.city.minami-alps.yamanashi.jp/newspage?item=/shisei/soshiki-syokai/sogo-seisaku-bu/kotsuseisaku/news/1zawon,0,,"Asia/Tokyo"
"P4707",,"天笑閣（南アルプス市）","",35.651657,138.409686,,http://www.city.minami-alps.yamanashi.jp/newspage?item=/shisei/soshiki-syokai/sogo-seisaku-bu/kotsuseisaku/news/1zawon,0,,"Asia/Tokyo"
"P4708",,"塩沢入口（南アルプス市）","",35.657905,138.428355,,http://www.city.minami-alps.yamanashi.jp/newspage?item=/shisei/soshiki-syokai/sogo-seisaku-bu/kotsuseisaku/news/1zawon,0,,"Asia/Tokyo"
"P4709",,"御勅使（南アルプス市）","",35.660978,138.440575,,http://www.city.minami-alps.yamanashi.jp/newspage?item=/shisei/soshiki-syokai/sogo-seisaku-bu/kotsuseisaku/news/1zawon,0,,"Asia/Tokyo"
"P4710",,"源小学校（南アルプス市）","",35.655047,138.441039,,http://www.city.minami-alps.yamanashi.jp/newspage?item=/shisei/soshiki-syokai/sogo-seisaku-bu/kotsuseisaku/news/1zawon,0,,"Asia/Tokyo"
"P4832",,"飯野新町（南アルプス市）","",35.649471,138.439429,,,0,,"Asia/Tokyo"
"P4711",,"Ｙショップ前（南アルプス市）","",35.644110,138.441483,,http://www.city.minami-alps.yamanashi.jp/newspage?item=/shisei/soshiki-syokai/sogo-seisaku-bu/kotsuseisaku/news/1zawon,0,,"Asia/Tokyo"
"P4833",,"曲輪田新田（南アルプス市）","",35.639131,138.444603,,,0,,"Asia/Tokyo"
"P4712",,"飯野六区（南アルプス市）","",35.642195,138.449668,,http://www.city.minami-alps.yamanashi.jp/newspage?item=/shisei/soshiki-syokai/sogo-seisaku-bu/kotsuseisaku/news/1zawon,0,,"Asia/Tokyo"
"P4714",,"ＪＡ飯野支所（南アルプス市）","",35.644153,138.454254,,http://www.city.minami-alps.yamanashi.jp/newspage?item=/shisei/soshiki-syokai/sogo-seisaku-bu/kotsuseisaku/news/1zawon,0,,"Asia/Tokyo"
"P4716",,"白根支所（南アルプス市）","",35.639593,138.463345,,http://www.city.minami-alps.yamanashi.jp/newspage?item=/shisei/soshiki-syokai/sogo-seisaku-bu/kotsuseisaku/news/1zawon,0,,"Asia/Tokyo"
"P4718",,"飯野上宿（南アルプス市）","",35.642140,138.464170,,http://www.city.minami-alps.yamanashi.jp/newspage?item=/shisei/soshiki-syokai/sogo-seisaku-bu/kotsuseisaku/news/1zawon,0,,"Asia/Tokyo"
"P4720",,"白根Ａコープ（南アルプス市）","",35.642532,138.466342,,http://www.city.minami-alps.yamanashi.jp/newspage?item=/shisei/soshiki-syokai/sogo-seisaku-bu/kotsuseisaku/news/1zawon,0,,"Asia/Tokyo"
"P4721",,"徳洲会病院（南アルプス市）","",35.638575,138.479047,,http://www.city.minami-alps.yamanashi.jp/newspage?item=/shisei/soshiki-syokai/sogo-seisaku-bu/kotsuseisaku/news/1zawon,0,,"Asia/Tokyo"
"P4723",,"ＪＡ在家塚支所（南アルプス市）","",35.638235,138.470944,,http://www.city.minami-alps.yamanashi.jp/newspage?item=/shisei/soshiki-syokai/sogo-seisaku-bu/kotsuseisaku/news/1zawon,0,,"Asia/Tokyo"
"P4836",,"在家塚交差点南（南アルプス市）","",35.636918,138.464035,,,0,,"Asia/Tokyo"
"P4758",,"倉庫町団地入口（南アルプス市）","",35.630853,138.463652,,http://www.city.minami-alps.yamanashi.jp/newspage?item=/shisei/soshiki-syokai/sogo-seisaku-bu/kotsuseisaku/news/1zawon,0,,"Asia/Tokyo"
"P4759",,"巨摩共立病院（南アルプス市）","",35.629639,138.461646,,http://www.city.minami-alps.yamanashi.jp/newspage?item=/shisei/soshiki-syokai/sogo-seisaku-bu/kotsuseisaku/news/1zawon,0,,"Asia/Tokyo"
"P4808",,"桃園神社（南アルプス市）","",35.625150,138.462937,,http://www.city.minami-alps.yamanashi.jp/newspage?item=/shisei/soshiki-syokai/sogo-seisaku-bu/kotsuseisaku/news/1zawon,0,,"Asia/Tokyo"
"P4726",,"南アルプス消防署（南アルプス市）","",35.623935,138.470059,,http://www.city.minami-alps.yamanashi.jp/newspage?item=/shisei/soshiki-syokai/sogo-seisaku-bu/kotsuseisaku/news/1zawon,0,,"Asia/Tokyo"
"P4766",,"南アルプス警察署南（南アルプス市）","",35.619278,138.469836,,http://www.city.minami-alps.yamanashi.jp/newspage?item=/shisei/soshiki-syokai/sogo-seisaku-bu/kotsuseisaku/news/1zawon,0,,"Asia/Tokyo"
"P4764",,"アルプスガーデン西（南アルプス市）","",35.619460,138.465637,,http://www.city.minami-alps.yamanashi.jp/newspage?item=/shisei/soshiki-syokai/sogo-seisaku-bu/kotsuseisaku/news/1zawon,0,,"Asia/Tokyo"
"P4818",,"市立美術館（南アルプス市）","",35.616788,138.464931,,http://www.city.minami-alps.yamanashi.jp/newspage?item=/shisei/soshiki-syokai/sogo-seisaku-bu/kotsuseisaku/news/1zawon,0,,"Asia/Tokyo"
"P4763",,"アルプスガーデン西（南アルプス市）","",35.619542,138.465631,,http://www.city.minami-alps.yamanashi.jp/newspage?item=/shisei/soshiki-syokai/sogo-seisaku-bu/kotsuseisaku/news/1zawon,0,,"Asia/Tokyo"
"P4765",,"南アルプス警察署南（南アルプス市）","",35.619350,138.469836,,http://www.city.minami-alps.yamanashi.jp/newspage?item=/shisei/soshiki-syokai/sogo-seisaku-bu/kotsuseisaku/news/1zawon,0,,"Asia/Tokyo"
"P4757",,"倉庫町団地入口（南アルプス市）","",35.630835,138.463592,,http://www.city.minami-alps.yamanashi.jp/newspage?item=/shisei/soshiki-syokai/sogo-seisaku-bu/kotsuseisaku/news/1zawon,0,,"Asia/Tokyo"
"P4835",,"在家塚交差点南（南アルプス市）","",35.637003,138.464017,,,0,,"Asia/Tokyo"
"P4724",,"ＪＡ在家塚支所（南アルプス市）","",35.638391,138.470947,,http://www.city.minami-alps.yamanashi.jp/newspage?item=/shisei/soshiki-syokai/sogo-seisaku-bu/kotsuseisaku/news/1zawon,0,,"Asia/Tokyo"
"P4722",,"徳洲会病院（南アルプス市）","",35.638586,138.478927,,http://www.city.minami-alps.yamanashi.jp/newspage?item=/shisei/soshiki-syokai/sogo-seisaku-bu/kotsuseisaku/news/1zawon,0,,"Asia/Tokyo"
"P4719",,"飯野上宿（南アルプス市）","",35.642051,138.464273,,http://www.city.minami-alps.yamanashi.jp/newspage?item=/shisei/soshiki-syokai/sogo-seisaku-bu/kotsuseisaku/news/1zawon,0,,"Asia/Tokyo"
"P4717",,"白根支所（南アルプス市）","",35.639539,138.463375,,http://www.city.minami-alps.yamanashi.jp/newspage?item=/shisei/soshiki-syokai/sogo-seisaku-bu/kotsuseisaku/news/1zawon,0,,"Asia/Tokyo"
"P4715",,"ＪＡ飯野支所（南アルプス市）","",35.644115,138.454220,,http://www.city.minami-alps.yamanashi.jp/newspage?item=/shisei/soshiki-syokai/sogo-seisaku-bu/kotsuseisaku/news/1zawon,0,,"Asia/Tokyo"
"P4713",,"飯野六区（南アルプス市）","",35.642172,138.449788,,http://www.city.minami-alps.yamanashi.jp/newspage?item=/shisei/soshiki-syokai/sogo-seisaku-bu/kotsuseisaku/news/1zawon,0,,"Asia/Tokyo"
"P4840",,"樹園（南アルプス市）","",35.668472,138.478931,,,0,,"Asia/Tokyo"
"P4741",,"野牛島下（南アルプス市）","",35.662958,138.484496,,http://www.city.minami-alps.yamanashi.jp/newspage?item=/shisei/soshiki-syokai/sogo-seisaku-bu/kotsuseisaku/news/1zawon,0,,"Asia/Tokyo"
"P4743",,"八田支所（南アルプス市）","",35.662357,138.481949,,http://www.city.minami-alps.yamanashi.jp/newspage?item=/shisei/soshiki-syokai/sogo-seisaku-bu/kotsuseisaku/news/1zawon,0,,"Asia/Tokyo"
"P4745",,"野牛島上（南アルプス市）","",35.663164,138.475436,,http://www.city.minami-alps.yamanashi.jp/newspage?item=/shisei/soshiki-syokai/sogo-seisaku-bu/kotsuseisaku/news/1zawon,0,,"Asia/Tokyo"
"P4748",,"六科下（南アルプス市）","",35.663018,138.469268,,http://www.city.minami-alps.yamanashi.jp/newspage?item=/shisei/soshiki-syokai/sogo-seisaku-bu/kotsuseisaku/news/1zawon,0,,"Asia/Tokyo"
"P4749",,"六科（南アルプス市）","",35.661075,138.465033,,http://www.city.minami-alps.yamanashi.jp/newspage?item=/shisei/soshiki-syokai/sogo-seisaku-bu/kotsuseisaku/news/1zawon,0,,"Asia/Tokyo"
"P4752",,"百々（南アルプス市）","",35.655002,138.464128,,http://www.city.minami-alps.yamanashi.jp/newspage?item=/shisei/soshiki-syokai/sogo-seisaku-bu/kotsuseisaku/news/1zawon,0,,"Asia/Tokyo"
"P4754",,"白根中央公園入口（南アルプス市）","",35.649906,138.463501,,http://www.city.minami-alps.yamanashi.jp/newspage?item=/shisei/soshiki-syokai/sogo-seisaku-bu/kotsuseisaku/news/1zawon,0,,"Asia/Tokyo"
"P4842",,"飯野（南アルプス市）","",35.645432,138.463652,,,0,,"Asia/Tokyo"
"P4844",,"曲輪田入口（南アルプス市）","",35.629580,138.451751,,,0,,"Asia/Tokyo"
"P4762",,"スポーツ公園入口（南アルプス市）","",35.620210,138.458067,,http://www.city.minami-alps.yamanashi.jp/newspage?item=/shisei/soshiki-syokai/sogo-seisaku-bu/kotsuseisaku/news/1zawon,0,,"Asia/Tokyo"
"P4846",,"小笠原橋（南アルプス市）","",35.611948,138.467383,,,0,,"Asia/Tokyo"
"P4872",,"戸田町（南アルプス市）","",35.615041,138.470163,,,0,,"Asia/Tokyo"
"P4873",,"戸田町（南アルプス市）","",35.615296,138.470356,,,0,,"Asia/Tokyo"
"P4845",,"小笠原橋（南アルプス市）","",35.612085,138.467635,,,0,,"Asia/Tokyo"
"P4841",,"飯野（南アルプス市）","",35.645445,138.463571,,,0,,"Asia/Tokyo"
"P4753",,"白根中央公園入口（南アルプス市）","",35.649896,138.463426,,http://www.city.minami-alps.yamanashi.jp/newspage?item=/shisei/soshiki-syokai/sogo-seisaku-bu/kotsuseisaku/news/1zawon,0,,"Asia/Tokyo"
"P4751",,"百々（南アルプス市）","",35.655342,138.464175,,http://www.city.minami-alps.yamanashi.jp/newspage?item=/shisei/soshiki-syokai/sogo-seisaku-bu/kotsuseisaku/news/1zawon,0,,"Asia/Tokyo"
"P4750",,"六科（南アルプス市）","",35.661081,138.464954,,http://www.city.minami-alps.yamanashi.jp/newspage?item=/shisei/soshiki-syokai/sogo-seisaku-bu/kotsuseisaku/news/1zawon,0,,"Asia/Tokyo"
"P4747",,"六科下（南アルプス市）","",35.663024,138.468867,,http://www.city.minami-alps.yamanashi.jp/newspage?item=/shisei/soshiki-syokai/sogo-seisaku-bu/kotsuseisaku/news/1zawon,0,,"Asia/Tokyo"
"P4746",,"野牛島上（南アルプス市）","",35.662743,138.476283,,http://www.city.minami-alps.yamanashi.jp/newspage?item=/shisei/soshiki-syokai/sogo-seisaku-bu/kotsuseisaku/news/1zawon,0,,"Asia/Tokyo"
"P4744",,"八田支所（南アルプス市）","",35.662308,138.481552,,http://www.city.minami-alps.yamanashi.jp/newspage?item=/shisei/soshiki-syokai/sogo-seisaku-bu/kotsuseisaku/news/1zawon,0,,"Asia/Tokyo"
"P4742",,"野牛島下（南アルプス市）","",35.663110,138.484963,,http://www.city.minami-alps.yamanashi.jp/newspage?item=/shisei/soshiki-syokai/sogo-seisaku-bu/kotsuseisaku/news/1zawon,0,,"Asia/Tokyo"
"P4847",,"青沼整形入口（南アルプス市）","",35.610880,138.467946,,,0,,"Asia/Tokyo"
"P4859",,"十日市場（南アルプス市）","",35.608637,138.480241,,,0,,"Asia/Tokyo"
"P4888",,"ＪＡ三恵支所（南アルプス市）","",35.608789,138.483428,,,0,,"Asia/Tokyo"
"P4798",,"津久井胃腸医院（南アルプス市）","",35.605165,138.487809,,http://www.city.minami-alps.yamanashi.jp/newspage?item=/shisei/soshiki-syokai/sogo-seisaku-bu/kotsuseisaku/news/1zawon,0,,"Asia/Tokyo"
"P4889",,"藤田（南アルプス市）","",35.601389,138.491335,,,0,,"Asia/Tokyo"
"P4890",,"ＪＡ藤田支所（南アルプス市）","",35.598575,138.496514,,,0,,"Asia/Tokyo"
"P4796",,"浅原（南アルプス市）","",35.594909,138.502503,,http://www.city.minami-alps.yamanashi.jp/newspage?item=/shisei/soshiki-syokai/sogo-seisaku-bu/kotsuseisaku/news/1zawon,0,,"Asia/Tokyo"
"P4989",,"若草団地（南アルプス市）","",35.591603,138.501356,,,0,,"Asia/Tokyo"
"P4990",,"一軒茶屋（南アルプス市）","",35.588149,138.497912,,,0,,"Asia/Tokyo"
"P4793",,"やまなみの湯（正面玄関）（南アルプス市）","",35.584808,138.499284,,http://www.city.minami-alps.yamanashi.jp/newspage?item=/shisei/soshiki-syokai/sogo-seisaku-bu/kotsuseisaku/news/1zawon,0,,"Asia/Tokyo"
"P4789",,"南湖小学校（南アルプス市）","",35.583497,138.494463,,http://www.city.minami-alps.yamanashi.jp/newspage?item=/shisei/soshiki-syokai/sogo-seisaku-bu/kotsuseisaku/news/1zawon,0,,"Asia/Tokyo"
"P4788",,"南湖北（南アルプス市）","",35.581769,138.493441,,http://www.city.minami-alps.yamanashi.jp/newspage?item=/shisei/soshiki-syokai/sogo-seisaku-bu/kotsuseisaku/news/1zawon,0,,"Asia/Tokyo"
"P4787",,"南湖南（南アルプス市）","",35.579129,138.491363,,http://www.city.minami-alps.yamanashi.jp/newspage?item=/shisei/soshiki-syokai/sogo-seisaku-bu/kotsuseisaku/news/1zawon,0,,"Asia/Tokyo"
"P4786",,"南湖下宿（南アルプス市）","",35.577470,138.489661,,http://www.city.minami-alps.yamanashi.jp/newspage?item=/shisei/soshiki-syokai/sogo-seisaku-bu/kotsuseisaku/news/1zawon,0,,"Asia/Tokyo"
"P4849",,"三郡橋（南アルプス市）","",35.573872,138.483943,,,0,,"Asia/Tokyo"
"P4791",,"ＪＡ南湖支所（南アルプス市）","",35.585470,138.488017,,http://www.city.minami-alps.yamanashi.jp/newspage?item=/shisei/soshiki-syokai/sogo-seisaku-bu/kotsuseisaku/news/1zawon,0,,"Asia/Tokyo"
"P4850",,"和泉（南アルプス市）","",35.586900,138.483125,,,0,,"Asia/Tokyo"
"P4790",,"甲西Ａコープ（南アルプス市）","",35.589045,138.480580,,http://www.city.minami-alps.yamanashi.jp/newspage?item=/shisei/soshiki-syokai/sogo-seisaku-bu/kotsuseisaku/news/1zawon,0,,"Asia/Tokyo"
"P4851",,"戸田宮沢（南アルプス市）","",35.590623,138.476202,,,0,,"Asia/Tokyo"
"P4783",,"荻原整形入口（南アルプス市）","",35.591681,138.472113,,http://www.city.minami-alps.yamanashi.jp/newspage?item=/shisei/soshiki-syokai/sogo-seisaku-bu/kotsuseisaku/news/1zawon,0,,"Asia/Tokyo"
"P4782",,"甲西支所（南アルプス市）","",35.593127,138.469597,,http://www.city.minami-alps.yamanashi.jp/newspage?item=/shisei/soshiki-syokai/sogo-seisaku-bu/kotsuseisaku/news/1zawon,0,,"Asia/Tokyo"
"P4781",,"古市場（南アルプス市）","",35.591921,138.466614,,http://www.city.minami-alps.yamanashi.jp/newspage?item=/shisei/soshiki-syokai/sogo-seisaku-bu/kotsuseisaku/news/1zawon,0,,"Asia/Tokyo"
"P4779",,"荊沢（南アルプス市）","",35.587929,138.466022,,http://www.city.minami-alps.yamanashi.jp/newspage?item=/shisei/soshiki-syokai/sogo-seisaku-bu/kotsuseisaku/news/1zawon,0,,"Asia/Tokyo"
"P4777",,"甲西工業団地入口（南アルプス市）","",35.583870,138.465941,,http://www.city.minami-alps.yamanashi.jp/newspage?item=/shisei/soshiki-syokai/sogo-seisaku-bu/kotsuseisaku/news/1zawon,0,,"Asia/Tokyo"
"P4852",,"東落合（南アルプス市）","",35.583822,138.464701,,,0,,"Asia/Tokyo"
"P4774",,"高原病院（南アルプス市）","",35.587318,138.464654,,http://www.city.minami-alps.yamanashi.jp/newspage?item=/shisei/soshiki-syokai/sogo-seisaku-bu/kotsuseisaku/news/1zawon,0,,"Asia/Tokyo"
"P4773",,"ＪＡ落合支所（南アルプス市）","",35.588869,138.453887,,http://www.city.minami-alps.yamanashi.jp/newspage?item=/shisei/soshiki-syokai/sogo-seisaku-bu/kotsuseisaku/news/1zawon,0,,"Asia/Tokyo"
"P4853",,"秋山（南アルプス市）","",35.582637,138.447497,,,0,,"Asia/Tokyo"
"P4854",,"湯沢（南アルプス市）","",35.588258,138.451127,,,0,,"Asia/Tokyo"
"P4855",,"塚原入口（南アルプス市）","",35.593694,138.455667,,,0,,"Asia/Tokyo"
"P4771",,"櫛形工業団地北（南アルプス市）","",35.598808,138.459024,,http://www.city.minami-alps.yamanashi.jp/newspage?item=/shisei/soshiki-syokai/sogo-seisaku-bu/kotsuseisaku/news/1zawon,0,,"Asia/Tokyo"
"P4769",,"下宮地（南アルプス市）","",35.603817,138.464344,,http://www.city.minami-alps.yamanashi.jp/newspage?item=/shisei/soshiki-syokai/sogo-seisaku-bu/kotsuseisaku/news/1zawon,0,,"Asia/Tokyo"
"P4856",,"南アルプス市役所（南アルプス市）","",35.608345,138.464550,,,0,,"Asia/Tokyo"
"P4862",,"富士見町（南アルプス市）","",35.613356,138.466149,,,0,,"Asia/Tokyo"
"P4857",,"南アルプス市役所（南アルプス市）","",35.608273,138.464647,,,0,,"Asia/Tokyo"
"P4768",,"下宮地（南アルプス市）","",35.603718,138.464456,,http://www.city.minami-alps.yamanashi.jp/newspage?item=/shisei/soshiki-syokai/sogo-seisaku-bu/kotsuseisaku/news/1zawon,0,,"Asia/Tokyo"
"P4776",,"甲西工業団地入口（南アルプス市）","",35.583425,138.465883,,http://www.city.minami-alps.yamanashi.jp/newspage?item=/shisei/soshiki-syokai/sogo-seisaku-bu/kotsuseisaku/news/1zawon,0,,"Asia/Tokyo"
"P4778",,"荊沢（南アルプス市）","",35.587008,138.465938,,http://www.city.minami-alps.yamanashi.jp/newspage?item=/shisei/soshiki-syokai/sogo-seisaku-bu/kotsuseisaku/news/1zawon,0,,"Asia/Tokyo"
"P4780",,"古市場（南アルプス市）","",35.591780,138.466557,,http://www.city.minami-alps.yamanashi.jp/newspage?item=/shisei/soshiki-syokai/sogo-seisaku-bu/kotsuseisaku/news/1zawon,0,,"Asia/Tokyo"
"P4797",,"浅原（南アルプス市）","",35.594848,138.502471,,http://www.city.minami-alps.yamanashi.jp/newspage?item=/shisei/soshiki-syokai/sogo-seisaku-bu/kotsuseisaku/news/1zawon,0,,"Asia/Tokyo"
"P4860",,"十日市場（南アルプス市）","",35.608549,138.480290,,,0,,"Asia/Tokyo"
"P4816",,"オギノ峡西店（南アルプス市）","",35.604744,138.467450,,http://www.city.minami-alps.yamanashi.jp/newspage?item=/shisei/soshiki-syokai/sogo-seisaku-bu/kotsuseisaku/news/1zawon,0,,"Asia/Tokyo"
"P4988",,"峡西病院東（南アルプス市）","",35.604441,138.465071,,,0,,"Asia/Tokyo"
"P4813",,"南風（南アルプス市）","",35.608997,138.456675,,http://www.city.minami-alps.yamanashi.jp/newspage?item=/shisei/soshiki-syokai/sogo-seisaku-bu/kotsuseisaku/news/1zawon,0,,"Asia/Tokyo"
"P4868",,"柿平交差点（南アルプス市）","",35.613354,138.455198,,,0,,"Asia/Tokyo"
"P4811",,"牧野団地（南アルプス市）","",35.616456,138.451845,,http://www.city.minami-alps.yamanashi.jp/newspage?item=/shisei/soshiki-syokai/sogo-seisaku-bu/kotsuseisaku/news/1zawon,0,,"Asia/Tokyo"
"P4870",,"スポーツ公園（南アルプス市）","",35.618995,138.456230,,,0,,"Asia/Tokyo"
"P4843",,"曲輪田入口（南アルプス市）","",35.629229,138.451324,,,0,,"Asia/Tokyo"
"P4871",,"南条小路集会所（南アルプス市）","",35.626623,138.440180,,,0,,"Asia/Tokyo"
"P4761",,"曲輪田（南アルプス市）","",35.629587,138.441930,,http://www.city.minami-alps.yamanashi.jp/newspage?item=/shisei/soshiki-syokai/sogo-seisaku-bu/kotsuseisaku/news/1zawon,0,,"Asia/Tokyo"
"P4864",,"西野（南アルプス市）","",35.640089,138.483176,,,0,,"Asia/Tokyo"
"P4865",,"ＪＡ西野支所（南アルプス市）","",35.636768,138.483192,,,0,,"Asia/Tokyo"
"P4866",,"上今井（南アルプス市）","",35.629105,138.480008,,,0,,"Asia/Tokyo"
"P4732",,"県営豊団地（南アルプス市）","",35.626254,138.479043,,http://www.city.minami-alps.yamanashi.jp/newspage?item=/shisei/soshiki-syokai/sogo-seisaku-bu/kotsuseisaku/news/1zawon,0,,"Asia/Tokyo"
"P4729",,"ＪＡ豊支所（南アルプス市）","",35.620673,138.478760,,http://www.city.minami-alps.yamanashi.jp/newspage?item=/shisei/soshiki-syokai/sogo-seisaku-bu/kotsuseisaku/news/1zawon,0,,"Asia/Tokyo"
"P4727",,"十五所（南アルプス市）","",35.619379,138.475988,,http://www.city.minami-alps.yamanashi.jp/newspage?item=/shisei/soshiki-syokai/sogo-seisaku-bu/kotsuseisaku/news/1zawon,0,,"Asia/Tokyo"
"P4728",,"十五所（南アルプス市）","",35.619424,138.475983,,http://www.city.minami-alps.yamanashi.jp/newspage?item=/shisei/soshiki-syokai/sogo-seisaku-bu/kotsuseisaku/news/1zawon,0,,"Asia/Tokyo"
"P4730",,"ＪＡ豊支所（南アルプス市）","",35.620932,138.479014,,http://www.city.minami-alps.yamanashi.jp/newspage?item=/shisei/soshiki-syokai/sogo-seisaku-bu/kotsuseisaku/news/1zawon,0,,"Asia/Tokyo"
"P4731",,"県営豊団地（南アルプス市）","",35.626266,138.478975,,http://www.city.minami-alps.yamanashi.jp/newspage?item=/shisei/soshiki-syokai/sogo-seisaku-bu/kotsuseisaku/news/1zawon,0,,"Asia/Tokyo"
"P4863",,"西野（南アルプス市）","",35.640115,138.482183,,,0,,"Asia/Tokyo"
"P4869",,"柿平交差点（南アルプス市）","",35.613374,138.455332,,,0,,"Asia/Tokyo"
"P4815",,"オギノ峡西店（南アルプス市）","",35.604860,138.467793,,http://www.city.minami-alps.yamanashi.jp/newspage?item=/shisei/soshiki-syokai/sogo-seisaku-bu/kotsuseisaku/news/1zawon,0,,"Asia/Tokyo"
"P4874",,"竜王駅（南アルプス市）","",35.668166,138.519785,,,0,,"Asia/Tokyo"
"P4875",,"信玄橋（南アルプス市）","",35.663462,138.496034,,,0,,"Asia/Tokyo"
"P4878",,"野牛島東（南アルプス市）","",35.663942,138.489296,,,0,,"Asia/Tokyo"
"P4879",,"ＪＡ八田選果場（南アルプス市）","",35.662119,138.486255,,,0,,"Asia/Tokyo"
"P4740",,"ハッピーパーク（南アルプス市）","",35.656204,138.494219,,http://www.city.minami-alps.yamanashi.jp/newspage?item=/shisei/soshiki-syokai/sogo-seisaku-bu/kotsuseisaku/news/1zawon,0,,"Asia/Tokyo"
"P4739",,"免許センター（南アルプス市）","",35.649632,138.497695,,http://www.city.minami-alps.yamanashi.jp/newspage?item=/shisei/soshiki-syokai/sogo-seisaku-bu/kotsuseisaku/news/1zawon,0,,"Asia/Tokyo"
"P4738",,"白根高校（南アルプス市）","",35.642876,138.493555,,http://www.city.minami-alps.yamanashi.jp/newspage?item=/shisei/soshiki-syokai/sogo-seisaku-bu/kotsuseisaku/news/1zawon,0,,"Asia/Tokyo"
"P4881",,"今諏訪（南アルプス市）","",35.634421,138.495601,,,0,,"Asia/Tokyo"
"P4983",,"ふれあい公園（南アルプス市）","",35.633674,138.494118,,,0,,"Asia/Tokyo"
"P4985",,"西野つどいの家東（南アルプス市）","",35.633729,138.484581,,,0,,"Asia/Tokyo"
"P4838",,"ケーヨーＤ２（南アルプス市）","",35.620358,138.464153,,,0,,"Asia/Tokyo"
"P4986",,"吉田（南アルプス市）","",35.624176,138.484447,,,0,,"Asia/Tokyo"
"P4806",,"中条入口（南アルプス市）","",35.627232,138.491889,,http://www.city.minami-alps.yamanashi.jp/newspage?item=/shisei/soshiki-syokai/sogo-seisaku-bu/kotsuseisaku/news/1zawon,0,,"Asia/Tokyo"
"P4884",,"県営下今井団地（南アルプス市）","",35.623500,138.492968,,,0,,"Asia/Tokyo"
"P4802",,"遊湯（南アルプス市）","",35.622010,138.502624,,http://www.city.minami-alps.yamanashi.jp/newspage?item=/shisei/soshiki-syokai/sogo-seisaku-bu/kotsuseisaku/news/1zawon,0,,"Asia/Tokyo"
"P4800",,"ＪＡ鏡中条支所（南アルプス市）","",35.616129,138.494696,,http://www.city.minami-alps.yamanashi.jp/newspage?item=/shisei/soshiki-syokai/sogo-seisaku-bu/kotsuseisaku/news/1zawon,0,,"Asia/Tokyo"
"P4887",,"寺部（南アルプス市）","",35.612181,138.491147,,,0,,"Asia/Tokyo"
"P4801",,"若草支所（南アルプス市）","",35.605935,138.490388,,http://www.city.minami-alps.yamanashi.jp/newspage?item=/shisei/soshiki-syokai/sogo-seisaku-bu/kotsuseisaku/news/1zawon,0,,"Asia/Tokyo"
"P4891",,"東花輪駅（南アルプス市）","",35.594479,138.526324,,,0,,"Asia/Tokyo"
"P4987",,"吉田（南アルプス市）","",35.623835,138.483575,,,0,,"Asia/Tokyo"
"P4837",,"ケーヨーＤ２（南アルプス市）","",35.620401,138.464038,,,0,,"Asia/Tokyo"
"P4984",,"西野つどいの家東（南アルプス市）","",35.633731,138.484890,,,0,,"Asia/Tokyo"
"P4880",,"今諏訪（南アルプス市）","",35.634660,138.495707,,,0,,"Asia/Tokyo"
"P4737",,"白根高校（南アルプス市）","",35.642844,138.493482,,http://www.city.minami-alps.yamanashi.jp/newspage?item=/shisei/soshiki-syokai/sogo-seisaku-bu/kotsuseisaku/news/1zawon,0,,"Asia/Tokyo"
"P4877",,"野牛島東（南アルプス市）","",35.663962,138.489288,,,0,,"Asia/Tokyo"
"P4876",,"信玄橋（南アルプス市）","",35.663640,138.495621,,,0,,"Asia/Tokyo"
"P3556",,"蒲原中学校","",35.125770,138.618949,,http://yamanashikotsu.co.jp/jikoku/town/236.htm,0,,"Asia/Tokyo"
"P3554",,"蒲原中学校正門","",35.122668,138.619679,,http://yamanashikotsu.co.jp/jikoku/town/1054.htm,0,,"Asia/Tokyo"
"P3553",,"日の出町","",35.121414,138.621390,,http://yamanashikotsu.co.jp/jikoku/town/1055.htm,0,,"Asia/Tokyo"
"P3552",,"留出東公園前","",35.126205,138.622157,,http://yamanashikotsu.co.jp/jikoku/town/1053.htm,0,,"Asia/Tokyo"
"P4056",,"幸町","",35.133584,138.617871,,,0,,"Asia/Tokyo"
"P3551",,"蒲原病院","",35.132675,138.616755,,http://yamanashikotsu.co.jp/jikoku/town/237.htm,0,,"Asia/Tokyo"
"P3549",,"小池入口","",35.137852,138.617549,,http://yamanashikotsu.co.jp/jikoku/town/288.htm,0,,"Asia/Tokyo"
"P3558",,"富士川駅","",35.141450,138.618332,,http://yamanashikotsu.co.jp/jikoku/town/783.htm,0,"S2846","Asia/Tokyo"
"P3547",,"JA富士市富士川支店前","",35.144572,138.618901,,http://yamanashikotsu.co.jp/jikoku/town/786.htm,0,,"Asia/Tokyo"
"P3546",,"旭町","",35.148888,138.620768,,http://yamanashikotsu.co.jp/jikoku/town/35.htm,0,,"Asia/Tokyo"
"P3545",,"富士川橋","",35.154976,138.621476,,http://yamanashikotsu.co.jp/jikoku/town/787.htm,0,,"Asia/Tokyo"
"P3544",,"湯沢橋","",35.157713,138.621390,,http://yamanashikotsu.co.jp/jikoku/town/967.htm,0,,"Asia/Tokyo"
"P3543",,"富士川楽座","",35.161835,138.619244,,http://yamanashikotsu.co.jp/jikoku/town/1020.htm,0,,"Asia/Tokyo"
"P3542",,"小山","",35.163151,138.617420,,http://yamanashikotsu.co.jp/jikoku/town/171.htm,0,,"Asia/Tokyo"
"P3541",,"小山北","",35.165958,138.617935,,http://yamanashikotsu.co.jp/jikoku/town/172.htm,0,,"Asia/Tokyo"
"P3540",,"木島","",35.172430,138.616090,,http://yamanashikotsu.co.jp/jikoku/town/238.htm,0,,"Asia/Tokyo"
"P3539",,"根方","",35.178271,138.605747,,http://yamanashikotsu.co.jp/jikoku/town/717.htm,0,,"Asia/Tokyo"
"P3538",,"南松野","",35.179481,138.602421,,http://yamanashikotsu.co.jp/jikoku/town/885.htm,0,,"Asia/Tokyo"
"P3537",,"松野局","",35.182129,138.599374,,http://yamanashikotsu.co.jp/jikoku/town/846.htm,0,,"Asia/Tokyo"
"P3533",,"富士川第二小学校","",35.184585,138.597057,,http://yamanashikotsu.co.jp/jikoku/town/785.htm,0,,"Asia/Tokyo"
"P3536",,"富士松野公園入口","",35.188951,138.597701,,http://yamanashikotsu.co.jp/jikoku/town/1126.htm,0,,"Asia/Tokyo"
"P3535",,"中野台公民館","",35.189408,138.600662,,http://yamanashikotsu.co.jp/jikoku/town/1125.htm,0,,"Asia/Tokyo"
"P3534",,"原方","",35.184690,138.600941,,http://yamanashikotsu.co.jp/jikoku/town/1124.htm,0,,"Asia/Tokyo"
"P3532",,"清水","",35.186882,138.590941,,http://yamanashikotsu.co.jp/jikoku/town/416.htm,0,,"Asia/Tokyo"
"P3526",,"北松野","",35.187005,138.589375,,http://yamanashikotsu.co.jp/jikoku/town/243.htm,0,,"Asia/Tokyo"
"P3527",,"堀之内","",35.187303,138.585963,,http://yamanashikotsu.co.jp/jikoku/town/825.htm,0,,"Asia/Tokyo"
"P3528",,"大北公民館","",35.191547,138.584676,,http://yamanashikotsu.co.jp/jikoku/town/133.htm,0,,"Asia/Tokyo"
"P3529",,"大北","",35.193686,138.584440,,http://yamanashikotsu.co.jp/jikoku/town/132.htm,0,,"Asia/Tokyo"
"P3548",,"富士川駅入口","",35.142130,138.617919,,http://yamanashikotsu.co.jp/jikoku/town/784.htm,0,,"Asia/Tokyo"
"P3550",,"幸町","",35.134254,138.617721,,http://yamanashikotsu.co.jp/jikoku/town/370.htm,0,,"Asia/Tokyo"
"P3511",,"富士宮駅","",35.221685,138.615274,,http://yamanashikotsu.co.jp/jikoku/town/790.htm,0,,"Asia/Tokyo"
"P3512",,"法務局富士宮出張所","",35.224665,138.613129,,http://yamanashikotsu.co.jp/jikoku/town/812.htm,0,,"Asia/Tokyo"
"P3513",,"神田宮橋","",35.224139,138.610575,,http://yamanashikotsu.co.jp/jikoku/town/235.htm,0,,"Asia/Tokyo"
"P3514",,"イオンモール富士宮","",35.219652,138.612388,,http://yamanashikotsu.co.jp/jikoku/town/1047.htm,0,,"Asia/Tokyo"
"P3515",,"浅間町南","",35.218688,138.609889,,http://yamanashikotsu.co.jp/jikoku/town/37.htm,0,,"Asia/Tokyo"
"P3516",,"野中","",35.215602,138.607979,,http://yamanashikotsu.co.jp/jikoku/town/721.htm,0,,"Asia/Tokyo"
"P3555",,"中村","",35.214077,138.607979,,http://yamanashikotsu.co.jp/jikoku/town/664.htm,0,,"Asia/Tokyo"
"P3517",,"市営住宅","",35.210992,138.607378,,http://yamanashikotsu.co.jp/jikoku/town/389.htm,0,,"Asia/Tokyo"
"P3520",,"星山台","",35.203558,138.608086,,http://yamanashikotsu.co.jp/jikoku/town/823.htm,0,,"Asia/Tokyo"
"P3519",,"星山団地","",35.207292,138.608258,,http://yamanashikotsu.co.jp/jikoku/town/824.htm,0,,"Asia/Tokyo"
"P3518",,"富士宮ゴルフ場入口","",35.208905,138.607142,,http://yamanashikotsu.co.jp/jikoku/town/791.htm,0,,"Asia/Tokyo"
"P3521",,"水沼入口","",35.197421,138.597314,,http://yamanashikotsu.co.jp/jikoku/town/866.htm,0,,"Asia/Tokyo"
"P3522",,"星山入口","",35.195685,138.596048,,http://yamanashikotsu.co.jp/jikoku/town/822.htm,0,,"Asia/Tokyo"
"P3523",,"沼久保","",35.196421,138.593452,,http://yamanashikotsu.co.jp/jikoku/town/716.htm,0,,"Asia/Tokyo"
"P3524",,"蓬莱橋","",35.194931,138.591349,,http://yamanashikotsu.co.jp/jikoku/town/814.htm,0,,"Asia/Tokyo"
"P3525",,"船戸入口","",35.191406,138.588839,,http://yamanashikotsu.co.jp/jikoku/town/799.htm,0,,"Asia/Tokyo"
"P3557",,"半在家","",35.189117,138.588839,,http://yamanashikotsu.co.jp/jikoku/town/749.htm,0,,"Asia/Tokyo"
"P4617",,"十谷入口（富士川町）","",35.506390,138.398563,,,0,,"Asia/Tokyo"
"P4616",,"かじかの湯（富士川町）","",35.507497,138.428373,,,0,,"Asia/Tokyo"
"P4615",,"白沢（富士川町）","",35.507650,138.430894,,,0,,"Asia/Tokyo"
"P4614",,"中部住宅（富士川町）","",35.515820,138.453366,,,0,,"Asia/Tokyo"
"P4611",,"鹿島（富士川町）","",35.512331,138.460736,,,0,,"Asia/Tokyo"
"P4612",,"箱原天神（富士川町）","",35.511969,138.457233,,,0,,"Asia/Tokyo"
"P4613",,"箱原（富士川町）","",35.514401,138.455104,,,0,,"Asia/Tokyo"
"P4610",,"五開入口（富士川町）","",35.517780,138.452749,,,0,,"Asia/Tokyo"
"P4609",,"塩の華（富士川町）","",35.522103,138.451504,,,0,,"Asia/Tokyo"
"P4608",,"小柳川（富士川町）","",35.524893,138.449728,,,0,,"Asia/Tokyo"
"P4513",,"鰍沢営業所（富士川町）","",35.542223,138.457866,,,0,,"Asia/Tokyo"
"P4607",,"鰍沢中学校前（富士川町）","",35.545213,138.460146,,,0,,"Asia/Tokyo"
"P4514",,"駅前通り二丁目（富士川町）","",35.539613,138.462437,,,0,,"Asia/Tokyo"
"P4515",,"駅前通り一丁目（富士川町）","",35.540290,138.469244,,,0,,"Asia/Tokyo"
"P4516",,"鰍沢口駅（富士川町）","",35.540971,138.470510,,,0,,"Asia/Tokyo"
"P4512",,"鰍沢小・中学校入口（富士川町）","",35.545855,138.459309,,,0,,"Asia/Tokyo"
"P4597",,"小室山入口（富士川町）","",35.549670,138.460307,,,0,,"Asia/Tokyo"
"P4596",,"フォレストモール南（富士川町）","",35.556416,138.468450,,,0,,"Asia/Tokyo"
"P4595",,"道の駅富士川（富士川町）","",35.557535,138.471969,,,0,,"Asia/Tokyo"
"P4502",,"甲西道路入口（富士川町）","",35.558817,138.469679,,,0,,"Asia/Tokyo"
"P4503",,"青柳二丁目（富士川町）","",35.559939,138.466680,,,0,,"Asia/Tokyo"
"P4504",,"町民会館（富士川町）","",35.561004,138.463220,,,0,,"Asia/Tokyo"
"P4505",,"富士川町役場（富士川町）","",35.561532,138.461160,,,0,,"Asia/Tokyo"
"P4506",,"増穂小学校（富士川町）","",35.562361,138.457990,,,0,,"Asia/Tokyo"
"P4507",,"最勝寺（富士川町）","",35.559594,138.456493,,,0,,"Asia/Tokyo"
"P4508",,"増穂商業高校正門（富士川町）","",35.557395,138.457620,,,0,,"Asia/Tokyo"
"P4598",,"教習所前（富士川町）","",35.553812,138.457308,,,0,,"Asia/Tokyo"
"P4599",,"畔沢（富士川町）","",35.550303,138.449031,,,0,,"Asia/Tokyo"
"P4600",,"土録入口（富士川町）","",35.543385,138.435695,,,0,,"Asia/Tokyo"
"P4601",,"小室（富士川町）","",35.543830,138.434038,,,0,,"Asia/Tokyo"
"P4606",,"平林（富士川町）","",35.578143,138.408117,,,0,,"Asia/Tokyo"
"P4605",,"西小前（富士川町）","",35.580390,138.409136,,,0,,"Asia/Tokyo"
"P4604",,"新梨（富士川町）","",35.579801,138.415463,,,0,,"Asia/Tokyo"
"P4603",,"新道橋（富士川町）","",35.568889,138.446488,,,0,,"Asia/Tokyo"
"P4602",,"大久保（富士川町）","",35.565245,138.448967,,,0,,"Asia/Tokyo"
"P4511",,"鰍沢病院（富士川町）","",35.549294,138.465977,,,0,,"Asia/Tokyo"
"P4510",,"青柳五丁目（富士川町）","",35.554435,138.463512,,,0,,"Asia/Tokyo"
"P4501",,"市川大門駅（富士川町）","",35.560860,138.491952,,,0,,"Asia/Tokyo"
"P4509",,"青柳五丁目（富士川町）","",35.554457,138.463671,,,0,,"Asia/Tokyo"
