stop_id,stop_code,stop_name,stop_desc,stop_lat,stop_lon,stop_url,zone_id,location_type,parent_station,stop_timezone
"S1",,"甲府駅北口","",35.667949,138.569514,,"http://yamanashikotsu.co.jp/jikoku/309.htm",1,,"Asia/Tokyo"
"S61",,"石和温泉駅入口","",35.650192,138.636987,,"",1,,"Asia/Tokyo"
"S286",,"竜王駅","",35.668443,138.519884,,"http://yamanashikotsu.co.jp/jikoku/988.htm",1,,"Asia/Tokyo"
"S448",,"鰍沢口駅","",35.540976,138.470478,,"http://yamanashikotsu.co.jp/jikoku/180.htm",1,,"Asia/Tokyo"
"S692",,"韮崎駅","",35.710969,138.450509,,"http://yamanashikotsu.co.jp/jikoku/town/705.htm",1,,"Asia/Tokyo"
"S972",,"富士山駅","",35.483849,138.795253,,"",1,,"Asia/Tokyo"
"S984",,"河口湖駅","",35.498427,138.768603,,"",1,,"Asia/Tokyo"
"S1711",,"身延駅","",35.361624,138.452733,,"http://yamanashikotsu.co.jp/jikoku/town/887.htm",1,,"Asia/Tokyo"
"S2235",,"上野原駅","",35.619057,139.116048,,"",1,,"Asia/Tokyo"
"S2250",,"猿橋駅","",35.612769,138.967593,,"",1,,"Asia/Tokyo"
"S2466",,"大月駅","",35.613078,138.942976,,"",1,,"Asia/Tokyo"
"S2568",,"都留市駅","",35.556746,138.907831,,"",1,,"Asia/Tokyo"
"S2615",,"富士駅","",35.150911,138.651393,,"",1,,"Asia/Tokyo"
"S2805",,"静岡駅北口","",34.972551,138.388891,,"",1,,"Asia/Tokyo"
"S2846",,"富士川駅","",35.141450,138.618332,,"http://yamanashikotsu.co.jp/jikoku/town/783.htm",1,,"Asia/Tokyo"
"S3292",,"石和温泉駅","",35.657246,138.635431,,"http://www.city.fuefuki.yamanashi.jp/file/4/4bbc358f8bdd8.html",1,,"Asia/Tokyo"
"P266",,"伊勢町営業所","",35.640926,138.570605,,http://yamanashikotsu.co.jp/jikoku/80.htm,0,,"Asia/Tokyo"
"P258",,"甲南住宅","",35.642759,138.569878,,http://yamanashikotsu.co.jp/jikoku/306.htm,0,,"Asia/Tokyo"
"P261",,"伊勢小学校","",35.645036,138.569728,,http://yamanashikotsu.co.jp/jikoku/78.htm,0,,"Asia/Tokyo"
"P263",,"伊勢二丁目","",35.646554,138.569653,,http://yamanashikotsu.co.jp/jikoku/81.htm,0,,"Asia/Tokyo"
"P265",,"遠光寺","",35.647589,138.569594,,http://yamanashikotsu.co.jp/jikoku/174.htm,0,,"Asia/Tokyo"
"P296",,"遊亀公園","",35.651423,138.570318,,http://yamanashikotsu.co.jp/jikoku/964.htm,0,,"Asia/Tokyo"
"P295",,"太田町見付","",35.652977,138.570455,,http://yamanashikotsu.co.jp/jikoku/149.htm,0,,"Asia/Tokyo"
"P299",,"若松町","",35.655745,138.571117,,http://yamanashikotsu.co.jp/jikoku/998.htm,0,,"Asia/Tokyo"
"P302",,"法人会館","",35.656998,138.571455,,http://yamanashikotsu.co.jp/jikoku/811.htm,0,,"Asia/Tokyo"
"P311",,"中央四丁目","",35.659981,138.572179,,http://yamanashikotsu.co.jp/jikoku/572.htm,0,,"Asia/Tokyo"
"P138",,"県庁前","",35.663224,138.568564,,http://yamanashikotsu.co.jp/jikoku/278.htm,0,,"Asia/Tokyo"
"P127",,"県会議事堂","",35.664736,138.567807,,http://yamanashikotsu.co.jp/jikoku/277.htm,0,,"Asia/Tokyo"
"P119",,"甲府駅バスターミナル(4番)","",35.666654,138.568679,,http://yamanashikotsu.co.jp/jikoku/310.htm,0,,"Asia/Tokyo"
"P397",,"丸の内二丁目北","",35.667277,138.565230,,http://yamanashikotsu.co.jp/jikoku/852.htm,0,,"Asia/Tokyo"
"P52",,"甲府駅北入口","",35.669850,138.565761,,http://yamanashikotsu.co.jp/jikoku/308.htm,0,,"Asia/Tokyo"
"P53",,"朝日五丁目南","",35.671931,138.566643,,http://yamanashikotsu.co.jp/jikoku/32.htm,0,,"Asia/Tokyo"
"P56",,"朝日五丁目","",35.673749,138.565806,,http://yamanashikotsu.co.jp/jikoku/31.htm,0,,"Asia/Tokyo"
"P148",,"一高前","",35.674579,138.563460,,http://yamanashikotsu.co.jp/jikoku/83.htm,0,,"Asia/Tokyo"
"P150",,"塩部","",35.676494,138.559321,,http://yamanashikotsu.co.jp/jikoku/397.htm,0,,"Asia/Tokyo"
"P152",,"北中入口","",35.677156,138.557186,,http://yamanashikotsu.co.jp/jikoku/241.htm,0,,"Asia/Tokyo"
"P154",,"県営アパート入口","",35.677917,138.554581,,http://yamanashikotsu.co.jp/jikoku/275.htm,0,,"Asia/Tokyo"
"P156",,"饅頭森入口","",35.678631,138.552269,,http://yamanashikotsu.co.jp/jikoku/859.htm,0,,"Asia/Tokyo"
"P160",,"湯村温泉入口","",35.680708,138.548689,,http://yamanashikotsu.co.jp/jikoku/977.htm,0,,"Asia/Tokyo"
"P364",,"湯村","",35.683139,138.548375,,http://yamanashikotsu.co.jp/jikoku/973.htm,0,,"Asia/Tokyo"
"P365",,"湯村団地入口","",35.686618,138.546554,,http://yamanashikotsu.co.jp/jikoku/977.htm,0,,"Asia/Tokyo"
"P367",,"湯村団地","",35.689152,138.545786,,http://yamanashikotsu.co.jp/jikoku/976.htm,0,,"Asia/Tokyo"
"P368",,"きぼうの家","",35.691566,138.546028,,http://yamanashikotsu.co.jp/jikoku/249.htm,0,,"Asia/Tokyo"
"P369",,"羽黒町","",35.692942,138.544172,,http://yamanashikotsu.co.jp/jikoku/727.htm,0,,"Asia/Tokyo"
"P370",,"千代田湖入口","",35.692622,138.540132,,http://yamanashikotsu.co.jp/jikoku/581.htm,0,,"Asia/Tokyo"
"P371",,"山宮北","",35.693465,138.537037,,http://yamanashikotsu.co.jp/jikoku/335.htm,0,,"Asia/Tokyo"
"P372",,"山宮公民館","",35.692927,138.532534,,http://yamanashikotsu.co.jp/jikoku/961.htm,0,,"Asia/Tokyo"
"P734",,"山宮上町","",35.690714,138.532893,,http://yamanashikotsu.co.jp/jikoku/960.htm,0,,"Asia/Tokyo"
"P733",,"山宮下町","",35.689280,138.533470,,http://yamanashikotsu.co.jp/jikoku/962.htm,0,,"Asia/Tokyo"
"P732",,"千塚上町","",35.686174,138.536546,,http://yamanashikotsu.co.jp/jikoku/558.htm,0,,"Asia/Tokyo"
"P730",,"千塚北","",35.683431,138.538679,,http://yamanashikotsu.co.jp/jikoku/1028.htm,0,,"Asia/Tokyo"
"P167",,"千塚","",35.681368,138.539988,,http://yamanashikotsu.co.jp/jikoku/559.htm,0,,"Asia/Tokyo"
"P165",,"千塚仲町","",35.681444,138.542613,,http://yamanashikotsu.co.jp/jikoku/561.htm,0,,"Asia/Tokyo"
"P163",,"湯村ショッピングセンター","",35.681178,138.544236,,http://yamanashikotsu.co.jp/jikoku/975.htm,0,,"Asia/Tokyo"
"P158",,"湯村温泉入口","",35.679673,138.549389,,http://yamanashikotsu.co.jp/jikoku/977.htm,0,,"Asia/Tokyo"
"P157",,"饅頭森入口","",35.678958,138.551644,,http://yamanashikotsu.co.jp/jikoku/859.htm,0,,"Asia/Tokyo"
"P155",,"県営アパート入口","",35.678150,138.554179,,http://yamanashikotsu.co.jp/jikoku/275.htm,0,,"Asia/Tokyo"
"P153",,"北中入口","",35.677492,138.556419,,http://yamanashikotsu.co.jp/jikoku/241.htm,0,,"Asia/Tokyo"
"P151",,"塩部","",35.676705,138.559023,,http://yamanashikotsu.co.jp/jikoku/397.htm,0,,"Asia/Tokyo"
"P149",,"一高前","",35.674964,138.562776,,http://yamanashikotsu.co.jp/jikoku/83.htm,0,,"Asia/Tokyo"
"P143",,"横沢通り北","",35.672807,138.564827,,http://yamanashikotsu.co.jp/jikoku/992.htm,0,,"Asia/Tokyo"
"P142",,"山梨病院","",35.671101,138.564066,,http://yamanashikotsu.co.jp/jikoku/958.htm,0,,"Asia/Tokyo"
"P344",,"朝日二丁目","",35.669602,138.564857,,http://yamanashikotsu.co.jp/jikoku/2504.htm,0,,"Asia/Tokyo"
"P398",,"丸の内二丁目北","",35.667284,138.565377,,http://yamanashikotsu.co.jp/jikoku/852.htm,0,,"Asia/Tokyo"
"P124",,"甲府駅バスターミナル(3番)","",35.666789,138.568424,,http://yamanashikotsu.co.jp/jikoku/310.htm,0,,"Asia/Tokyo"
"P128",,"県会議事堂","",35.664717,138.568145,,http://yamanashikotsu.co.jp/jikoku/277.htm,0,,"Asia/Tokyo"
"P129",,"甲府市役所","",35.662038,138.567759,,http://yamanashikotsu.co.jp/jikoku/316.htm,0,,"Asia/Tokyo"
"P139",,"常盤通り","",35.661230,138.570752,,http://yamanashikotsu.co.jp/jikoku/611.htm,0,,"Asia/Tokyo"
"P312",,"中央四丁目北","",35.660103,138.572305,,http://yamanashikotsu.co.jp/jikoku/573.htm,0,,"Asia/Tokyo"
"P310",,"中央四丁目南","",35.658854,138.572032,,http://yamanashikotsu.co.jp/jikoku/574.htm,0,,"Asia/Tokyo"
"P300",,"法人会館","",35.656246,138.571343,,http://yamanashikotsu.co.jp/jikoku/811.htm,0,,"Asia/Tokyo"
"P298",,"若松町","",35.654831,138.570951,,http://yamanashikotsu.co.jp/jikoku/998.htm,0,,"Asia/Tokyo"
"P294",,"太田町見付","",35.653410,138.570610,,http://yamanashikotsu.co.jp/jikoku/149.htm,0,,"Asia/Tokyo"
"P297",,"遊亀公園","",35.650656,138.570388,,http://yamanashikotsu.co.jp/jikoku/964.htm,0,,"Asia/Tokyo"
"P264",,"遠光寺","",35.647273,138.569672,,http://yamanashikotsu.co.jp/jikoku/174.htm,0,,"Asia/Tokyo"
"P262",,"伊勢二丁目","",35.646061,138.569736,,http://yamanashikotsu.co.jp/jikoku/81.htm,0,,"Asia/Tokyo"
"P260",,"伊勢小学校","",35.644267,138.569830,,http://yamanashikotsu.co.jp/jikoku/78.htm,0,,"Asia/Tokyo"
"P259",,"甲南住宅","",35.643240,138.569905,,http://yamanashikotsu.co.jp/jikoku/306.htm,0,,"Asia/Tokyo"
"P267",,"伊勢町営業所","",35.640762,138.570884,,http://yamanashikotsu.co.jp/jikoku/80.htm,0,,"Asia/Tokyo"
"P159",,"湯村温泉入口","",35.679987,138.548074,,http://yamanashikotsu.co.jp/jikoku/977.htm,0,,"Asia/Tokyo"
"P162",,"湯村ショッピングセンター","",35.681008,138.544472,,http://yamanashikotsu.co.jp/jikoku/975.htm,0,,"Asia/Tokyo"
"P164",,"千塚仲町","",35.681287,138.543083,,http://yamanashikotsu.co.jp/jikoku/561.htm,0,,"Asia/Tokyo"
"P168",,"千塚","",35.682052,138.538966,,http://yamanashikotsu.co.jp/jikoku/559.htm,0,,"Asia/Tokyo"
"P731",,"千塚北","",35.684102,138.538448,,http://yamanashikotsu.co.jp/jikoku/1028.htm,0,,"Asia/Tokyo"
"P161",,"湯川橋","",35.680875,138.548715,,http://yamanashikotsu.co.jp/jikoku/966.htm,0,,"Asia/Tokyo"
"P186",,"敷島営業所","",35.688185,138.521244,,http://yamanashikotsu.co.jp/jikoku/399.htm,0,,"Asia/Tokyo"
"P181",,"敷島中学校西口","",35.687021,138.523360,,http://yamanashikotsu.co.jp/jikoku/405.htm,0,,"Asia/Tokyo"
"P182",,"事業団住宅入口","",35.684843,138.522918,,http://yamanashikotsu.co.jp/jikoku/408.htm,0,,"Asia/Tokyo"
"P177",,"敷島西町","",35.683797,138.526059,,http://yamanashikotsu.co.jp/jikoku/407.htm,0,,"Asia/Tokyo"
"P433",,"中下条新町","",35.679211,138.525101,,http://yamanashikotsu.co.jp/jikoku/649.htm,0,,"Asia/Tokyo"
"P440",,"大下条","",35.675566,138.523787,,http://yamanashikotsu.co.jp/jikoku/144.htm,0,,"Asia/Tokyo"
"P449",,"大下条南","",35.672461,138.524023,,http://yamanashikotsu.co.jp/jikoku/145.htm,0,,"Asia/Tokyo"
"P452",,"竜王駅","",35.668441,138.519852,,http://yamanashikotsu.co.jp/jikoku/988.htm,0,"S286","Asia/Tokyo"
"P484",,"竜王郵便局","",35.665630,138.520533,,http://yamanashikotsu.co.jp/jikoku/990.htm,0,,"Asia/Tokyo"
"P482",,"名取","",35.663873,138.526480,,http://yamanashikotsu.co.jp/jikoku/669.htm,0,,"Asia/Tokyo"
"P481",,"貢川団地入口","",35.662646,138.531587,,http://yamanashikotsu.co.jp/jikoku/260.htm,0,,"Asia/Tokyo"
"P474",,"山梨県立美術館","",35.661263,138.539017,,http://yamanashikotsu.co.jp/jikoku/953.htm,0,,"Asia/Tokyo"
"P476",,"貢川一丁目","",35.660491,138.542233,,http://yamanashikotsu.co.jp/jikoku/954.htm,0,,"Asia/Tokyo"
"P471",,"貢川","",35.658621,138.547602,,http://yamanashikotsu.co.jp/jikoku/257.htm,0,,"Asia/Tokyo"
"P469",,"貢川交番前","",35.658299,138.550767,,http://yamanashikotsu.co.jp/jikoku/258.htm,0,,"Asia/Tokyo"
"P467",,"上石田町","",35.658480,138.553551,,http://yamanashikotsu.co.jp/jikoku/200.htm,0,,"Asia/Tokyo"
"P465",,"荒川橋","",35.659149,138.556770,,http://yamanashikotsu.co.jp/jikoku/55.htm,0,,"Asia/Tokyo"
"P464",,"寿町","",35.660206,138.559943,,http://yamanashikotsu.co.jp/jikoku/347.htm,0,,"Asia/Tokyo"
"P462",,"県民文化ホール","",35.659591,138.562558,,http://yamanashikotsu.co.jp/jikoku/280.htm,0,,"Asia/Tokyo"
"P460",,"丸の内郵便局","",35.659118,138.564232,,http://yamanashikotsu.co.jp/jikoku/855.htm,0,,"Asia/Tokyo"
"P133",,"甲府地方裁判所","",35.659140,138.566785,,http://yamanashikotsu.co.jp/jikoku/323.htm,0,,"Asia/Tokyo"
"P130",,"丸の内三丁目","",35.661191,138.567225,,http://yamanashikotsu.co.jp/jikoku/851.htm,0,,"Asia/Tokyo"
"P736",,"北西中学校","",35.692539,138.530857,,http://yamanashikotsu.co.jp/jikoku/817.htm,0,,"Asia/Tokyo"
"P374",,"山宮福祉センター","",35.696545,138.527330,,http://yamanashikotsu.co.jp/jikoku/963.htm,0,,"Asia/Tokyo"
"P375",,"片山","",35.698885,138.524718,,http://yamanashikotsu.co.jp/jikoku/187.htm,0,,"Asia/Tokyo"
"P376",,"成田山身代わり不動尊","",35.702882,138.525104,,http://yamanashikotsu.co.jp/jikoku/676.htm,0,,"Asia/Tokyo"
"P377",,"上野入口","",35.709117,138.532526,,http://yamanashikotsu.co.jp/jikoku/101.htm,0,,"Asia/Tokyo"
"P378",,"桜橋","",35.713660,138.536101,,http://yamanashikotsu.co.jp/jikoku/378.htm,0,,"Asia/Tokyo"
"P379",,"吉沢農協","",35.715396,138.541017,,http://yamanashikotsu.co.jp/jikoku/1013.htm,0,,"Asia/Tokyo"
"P380",,"寺平","",35.721524,138.546165,,http://yamanashikotsu.co.jp/jikoku/595.htm,0,,"Asia/Tokyo"
"P381",,"昇仙峡口","",35.724531,138.547983,,http://yamanashikotsu.co.jp/jikoku/463.htm,0,,"Asia/Tokyo"
"P373",,"山宮福祉センター","",35.696791,138.527207,,http://yamanashikotsu.co.jp/jikoku/963.htm,0,,"Asia/Tokyo"
"P735",,"北西中学校","",35.692091,138.531426,,http://yamanashikotsu.co.jp/jikoku/817.htm,0,,"Asia/Tokyo"
"P122",,"甲府駅バスターミナル(1番)","",35.666508,138.568196,,http://yamanashikotsu.co.jp/jikoku/310.htm,0,,"Asia/Tokyo"
"P132",,"甲府地方裁判所","",35.659883,138.567298,,http://yamanashikotsu.co.jp/jikoku/323.htm,0,,"Asia/Tokyo"
"P459",,"丸の内郵便局","",35.658946,138.564425,,http://yamanashikotsu.co.jp/jikoku/855.htm,0,,"Asia/Tokyo"
"P461",,"県民文化ホール","",35.659295,138.563186,,http://yamanashikotsu.co.jp/jikoku/280.htm,0,,"Asia/Tokyo"
"P463",,"寿町","",35.659903,138.560686,,http://yamanashikotsu.co.jp/jikoku/347.htm,0,,"Asia/Tokyo"
"P466",,"荒川橋","",35.658987,138.556867,,http://yamanashikotsu.co.jp/jikoku/55.htm,0,,"Asia/Tokyo"
"P468",,"上石田町","",35.658458,138.553404,,http://yamanashikotsu.co.jp/jikoku/200.htm,0,,"Asia/Tokyo"
"P470",,"貢川交番前","",35.658301,138.550518,,http://yamanashikotsu.co.jp/jikoku/258.htm,0,,"Asia/Tokyo"
"P1154",,"貢川","",35.659240,138.545725,,http://yamanashikotsu.co.jp/jikoku/257.htm,0,,"Asia/Tokyo"
"P475",,"貢川一丁目","",35.660866,138.540486,,http://yamanashikotsu.co.jp/jikoku/954.htm,0,,"Asia/Tokyo"
"P473",,"山梨県立美術館","",35.661631,138.537649,,http://yamanashikotsu.co.jp/jikoku/953.htm,0,,"Asia/Tokyo"
"P478",,"貢川団地入口","",35.662326,138.533215,,http://yamanashikotsu.co.jp/jikoku/260.htm,0,,"Asia/Tokyo"
"P483",,"名取","",35.663923,138.526139,,http://yamanashikotsu.co.jp/jikoku/669.htm,0,,"Asia/Tokyo"
"P485",,"竜王郵便局","",35.665632,138.520327,,http://yamanashikotsu.co.jp/jikoku/990.htm,0,,"Asia/Tokyo"
"P451",,"竜王駅","",35.668445,138.519917,,http://yamanashikotsu.co.jp/jikoku/988.htm,0,"S286","Asia/Tokyo"
"P450",,"大下条南","",35.672119,138.523934,,http://yamanashikotsu.co.jp/jikoku/145.htm,0,,"Asia/Tokyo"
"P439",,"大下条","",35.676239,138.523983,,http://yamanashikotsu.co.jp/jikoku/144.htm,0,,"Asia/Tokyo"
"P434",,"中下条新町","",35.678827,138.524924,,http://yamanashikotsu.co.jp/jikoku/649.htm,0,,"Asia/Tokyo"
"P176",,"敷島西町","",35.683767,138.525646,,http://yamanashikotsu.co.jp/jikoku/407.htm,0,,"Asia/Tokyo"
"P385",,"天神森","",35.725572,138.549673,,http://yamanashikotsu.co.jp/jikoku/598.htm,0,,"Asia/Tokyo"
"P386",,"平瀬入口","",35.722325,138.552221,,http://yamanashikotsu.co.jp/jikoku/775.htm,0,,"Asia/Tokyo"
"P387",,"千代田小学校","",35.714664,138.553361,,http://yamanashikotsu.co.jp/jikoku/582.htm,0,,"Asia/Tokyo"
"P388",,"グリーンライン昇仙峡","",35.738505,138.565278,,http://yamanashikotsu.co.jp/jikoku/270.htm,0,,"Asia/Tokyo"
"P389",,"昇仙峡滝上","",35.751018,138.566136,,http://yamanashikotsu.co.jp/jikoku/464.htm,0,,"Asia/Tokyo"
"P472",,"貢川","",35.658530,138.547871,,http://yamanashikotsu.co.jp/jikoku/257.htm,0,,"Asia/Tokyo"
"P166",,"千塚","",35.681257,138.539843,,http://yamanashikotsu.co.jp/jikoku/559.htm,0,,"Asia/Tokyo"
"P169",,"千塚西","",35.681300,138.537284,,http://yamanashikotsu.co.jp/jikoku/562.htm,0,,"Asia/Tokyo"
"P171",,"千松橋","",35.682065,138.534543,,http://yamanashikotsu.co.jp/jikoku/1014.htm,0,,"Asia/Tokyo"
"P173",,"敷島小学校","",35.682836,138.531614,,http://yamanashikotsu.co.jp/jikoku/3001.htm,0,,"Asia/Tokyo"
"P432",,"敷島仲町","",35.683361,138.527759,,http://yamanashikotsu.co.jp/jikoku/406.htm,0,,"Asia/Tokyo"
"P175",,"敷島仲町","",35.683374,138.528462,,http://yamanashikotsu.co.jp/jikoku/406.htm,0,,"Asia/Tokyo"
"P174",,"敷島小学校","",35.683139,138.530605,,http://yamanashikotsu.co.jp/jikoku/3001.htm,0,,"Asia/Tokyo"
"P172",,"千松橋","",35.682218,138.534454,,http://yamanashikotsu.co.jp/jikoku/1014.htm,0,,"Asia/Tokyo"
"P170",,"千塚西","",35.681505,138.536922,,http://yamanashikotsu.co.jp/jikoku/562.htm,0,,"Asia/Tokyo"
"P1113",,"金の宮住宅入口","",35.684584,138.521327,,http://yamanashikotsu.co.jp/jikoku/town/197.htm,0,,"Asia/Tokyo"
"P180",,"敷島","",35.684984,138.518436,,http://yamanashikotsu.co.jp/jikoku/398.htm,0,,"Asia/Tokyo"
"P187",,"滝坂上","",35.685723,138.510998,,http://yamanashikotsu.co.jp/jikoku/town/533.htm,0,,"Asia/Tokyo"
"P188",,"登美仲宿","",35.687167,138.506074,,http://yamanashikotsu.co.jp/jikoku/town/625.htm,0,,"Asia/Tokyo"
"P1205",,"登美上宿","",35.687997,138.503523,,http://yamanashikotsu.co.jp/jikoku/town/627.htm,0,,"Asia/Tokyo"
"P1206",,"登美","",35.688734,138.499725,,http://yamanashikotsu.co.jp/jikoku/621.htm,0,,"Asia/Tokyo"
"P190",,"下今井","",35.683995,138.494395,,http://yamanashikotsu.co.jp/jikoku/town/423.htm,0,,"Asia/Tokyo"
"P191",,"塩崎駅","",35.686967,138.487116,,http://yamanashikotsu.co.jp/jikoku/town/393.htm,0,,"Asia/Tokyo"
"P193",,"双葉西小学校","",35.689289,138.481928,,http://yamanashikotsu.co.jp/jikoku/town/796.htm,0,,"Asia/Tokyo"
"P194",,"宇津谷","",35.690991,138.477747,,http://yamanashikotsu.co.jp/jikoku/town/109.htm,0,,"Asia/Tokyo"
"P196",,"金剛寺","",35.695548,138.470650,,http://yamanashikotsu.co.jp/jikoku/town/363.htm,0,,"Asia/Tokyo"
"P197",,"韮崎自動車教習所","",35.698634,138.465122,,http://yamanashikotsu.co.jp/jikoku/town/708.htm,0,,"Asia/Tokyo"
"P198",,"韮崎市立病院","",35.702108,138.457794,,http://yamanashikotsu.co.jp/jikoku/town/713.htm,0,,"Asia/Tokyo"
"P200",,"韮崎営業所","",35.702801,138.456362,,http://yamanashikotsu.co.jp/jikoku/town/704.htm,0,,"Asia/Tokyo"
"P201",,"韮崎小学校","",35.705452,138.452344,,http://yamanashikotsu.co.jp/jikoku/town/712.htm,0,,"Asia/Tokyo"
"P203",,"中銀韮崎支店","",35.706271,138.451351,,http://yamanashikotsu.co.jp/jikoku/town/575.htm,0,,"Asia/Tokyo"
"P1033",,"平和観音入口","",35.709368,138.450139,,http://yamanashikotsu.co.jp/jikoku/town/709.htm,0,,"Asia/Tokyo"
"P1035",,"韮崎駅","",35.710969,138.450509,,http://yamanashikotsu.co.jp/jikoku/town/705.htm,0,"S692","Asia/Tokyo"
"P1034",,"平和観音入口","",35.709479,138.450201,,http://yamanashikotsu.co.jp/jikoku/town/709.htm,0,,"Asia/Tokyo"
"P202",,"中銀韮崎支店","",35.706569,138.451153,,http://yamanashikotsu.co.jp/jikoku/town/575.htm,0,,"Asia/Tokyo"
"P1535",,"韮崎小学校","",35.704602,138.453486,,http://yamanashikotsu.co.jp/jikoku/town/712.htm,0,,"Asia/Tokyo"
"P199",,"韮崎市立病院","",35.702028,138.458070,,http://yamanashikotsu.co.jp/jikoku/town/713.htm,0,,"Asia/Tokyo"
"P195",,"宇津谷","",35.690993,138.478079,,http://yamanashikotsu.co.jp/jikoku/town/109.htm,0,,"Asia/Tokyo"
"P192",,"塩崎駅","",35.687257,138.486386,,http://yamanashikotsu.co.jp/jikoku/town/393.htm,0,,"Asia/Tokyo"
"P1204",,"登美","",35.689056,138.500562,,http://yamanashikotsu.co.jp/jikoku/621.htm,0,,"Asia/Tokyo"
"P189",,"登美上宿","",35.688019,138.503501,,http://yamanashikotsu.co.jp/jikoku/town/627.htm,0,,"Asia/Tokyo"
"P179",,"敷島","",35.685095,138.518372,,http://yamanashikotsu.co.jp/jikoku/398.htm,0,,"Asia/Tokyo"
"P178",,"金の宮住宅入口","",35.684668,138.521333,,http://yamanashikotsu.co.jp/jikoku/town/197.htm,0,,"Asia/Tokyo"
"P270",,"住吉一丁目","",35.640453,138.572517,,http://yamanashikotsu.co.jp/jikoku/503.htm,0,,"Asia/Tokyo"
"P271",,"住吉一丁目北","",35.641830,138.572930,,http://yamanashikotsu.co.jp/jikoku/470.htm,0,,"Asia/Tokyo"
"P272",,"南中学校","",35.643522,138.573408,,http://yamanashikotsu.co.jp/jikoku/883.htm,0,,"Asia/Tokyo"
"P273",,"幸町","",35.644871,138.573724,,http://yamanashikotsu.co.jp/jikoku/369.htm,0,,"Asia/Tokyo"
"P275",,"山梨交通自動車学校","",35.645026,138.574725,,http://yamanashikotsu.co.jp/jikoku/955.htm,0,,"Asia/Tokyo"
"P276",,"南甲府駅","",35.643846,138.577104,,http://yamanashikotsu.co.jp/jikoku/880.htm,0,,"Asia/Tokyo"
"P277",,"湯田二丁目","",35.647083,138.577925,,http://yamanashikotsu.co.jp/jikoku/971.htm,0,,"Asia/Tokyo"
"P285",,"北大路通り","",35.648057,138.574703,,http://yamanashikotsu.co.jp/jikoku/239.htm,0,,"Asia/Tokyo"
"P287",,"太田町南部","",35.649132,138.572338,,http://yamanashikotsu.co.jp/jikoku/148.htm,0,,"Asia/Tokyo"
"P137",,"県庁前","",35.663579,138.569130,,http://yamanashikotsu.co.jp/jikoku/278.htm,0,,"Asia/Tokyo"
"P134",,"甲府駅（陸橋）","",35.666427,138.569999,,http://yamanashikotsu.co.jp/jikoku/311.htm,0,,"Asia/Tokyo"
"P4139",,"甲府駅北口(2番)","",35.667944,138.569540,,http://yamanashikotsu.co.jp/jikoku/309.htm,0,"S1","Asia/Tokyo"
"P29",,"郵便貯金山梨センター","",35.669774,138.569709,,http://yamanashikotsu.co.jp/jikoku/326.htm,0,,"Asia/Tokyo"
"P30",,"新紺屋小学校","",35.671387,138.570347,,http://yamanashikotsu.co.jp/jikoku/490.htm,0,,"Asia/Tokyo"
"P32",,"武田一丁目","",35.673176,138.571166,,http://yamanashikotsu.co.jp/jikoku/535.htm,0,,"Asia/Tokyo"
"P35",,"武田三丁目","",35.675062,138.571965,,http://yamanashikotsu.co.jp/jikoku/537.htm,0,,"Asia/Tokyo"
"P37",,"山梨大学","",35.677716,138.573022,,http://yamanashikotsu.co.jp/jikoku/957.htm,0,,"Asia/Tokyo"
"P39",,"梨大北","",35.680002,138.574014,,http://yamanashikotsu.co.jp/jikoku/307.htm,0,,"Asia/Tokyo"
"P41",,"山梨県歯科医師会館","",35.682106,138.575052,,http://yamanashikotsu.co.jp/jikoku/950.htm,0,,"Asia/Tokyo"
"P43",,"護国神社入口","",35.684067,138.576036,,http://yamanashikotsu.co.jp/jikoku/336.htm,0,,"Asia/Tokyo"
"P44",,"武田神社","",35.685699,138.576468,,http://yamanashikotsu.co.jp/jikoku/538.htm,0,,"Asia/Tokyo"
"P45",,"武田神社","",35.685804,138.576519,,http://yamanashikotsu.co.jp/jikoku/538.htm,0,,"Asia/Tokyo"
"P42",,"護国神社入口","",35.683124,138.575669,,http://yamanashikotsu.co.jp/jikoku/336.htm,0,,"Asia/Tokyo"
"P40",,"山梨県歯科医師会館","",35.681185,138.574690,,http://yamanashikotsu.co.jp/jikoku/950.htm,0,,"Asia/Tokyo"
"P38",,"梨大北","",35.679263,138.573802,,http://yamanashikotsu.co.jp/jikoku/307.htm,0,,"Asia/Tokyo"
"P36",,"山梨大学","",35.677017,138.572839,,http://yamanashikotsu.co.jp/jikoku/957.htm,0,,"Asia/Tokyo"
"P34",,"武田三丁目","",35.675679,138.572308,,http://yamanashikotsu.co.jp/jikoku/537.htm,0,,"Asia/Tokyo"
"P33",,"武田一丁目","",35.673341,138.571348,,http://yamanashikotsu.co.jp/jikoku/535.htm,0,,"Asia/Tokyo"
"P31",,"新紺屋小学校","",35.671051,138.570275,,http://yamanashikotsu.co.jp/jikoku/490.htm,0,,"Asia/Tokyo"
"P4140",,"甲府駅北口(3番)","",35.668070,138.569503,,http://yamanashikotsu.co.jp/jikoku/309.htm,0,"S1","Asia/Tokyo"
"P135",,"甲府駅（陸橋）","",35.666473,138.570152,,http://yamanashikotsu.co.jp/jikoku/311.htm,0,,"Asia/Tokyo"
"P136",,"県庁前","",35.664096,138.569508,,http://yamanashikotsu.co.jp/jikoku/278.htm,0,,"Asia/Tokyo"
"P286",,"北大路通り","",35.648079,138.574929,,http://yamanashikotsu.co.jp/jikoku/239.htm,0,,"Asia/Tokyo"
"P278",,"湯田二丁目","",35.647083,138.577992,,http://yamanashikotsu.co.jp/jikoku/971.htm,0,,"Asia/Tokyo"
"P274",,"山梨交通自動車学校","",35.644971,138.574698,,http://yamanashikotsu.co.jp/jikoku/955.htm,0,,"Asia/Tokyo"
"P46",,"塚原入口","",35.689193,138.576994,,http://yamanashikotsu.co.jp/jikoku/589.htm,0,,"Asia/Tokyo"
"P47",,"日影","",35.690435,138.578507,,http://yamanashikotsu.co.jp/jikoku/752.htm,0,,"Asia/Tokyo"
"P48",,"神宮寺","",35.691311,138.581610,,http://yamanashikotsu.co.jp/jikoku/488.htm,0,,"Asia/Tokyo"
"P49",,"積翠寺橋","",35.694302,138.584906,,http://yamanashikotsu.co.jp/jikoku/511.htm,0,,"Asia/Tokyo"
"P50",,"下積翠寺","",35.696667,138.585749,,http://yamanashikotsu.co.jp/jikoku/438.htm,0,,"Asia/Tokyo"
"P51",,"積翠寺","",35.699360,138.589155,,http://yamanashikotsu.co.jp/jikoku/511.htm,0,,"Asia/Tokyo"
"P4138",,"甲府駅北口(1番)","",35.667833,138.569500,,http://yamanashikotsu.co.jp/jikoku/309.htm,0,"S1","Asia/Tokyo"
"P57",,"朝日五丁目","",35.673882,138.566504,,http://yamanashikotsu.co.jp/jikoku/31.htm,0,,"Asia/Tokyo"
"P59",,"美咲二丁目","",35.675574,138.567131,,http://yamanashikotsu.co.jp/jikoku/1011.htm,0,,"Asia/Tokyo"
"P61",,"国立病院","",35.677126,138.566547,,http://yamanashikotsu.co.jp/jikoku/334.htm,0,,"Asia/Tokyo"
"P63",,"山梨県福祉プラザ","",35.678008,138.565468,,http://yamanashikotsu.co.jp/jikoku/952.htm,0,,"Asia/Tokyo"
"P65",,"北新小学校","",35.679353,138.566085,,http://yamanashikotsu.co.jp/jikoku/815.htm,0,,"Asia/Tokyo"
"P67",,"附属小学校","",35.680522,138.567437,,http://yamanashikotsu.co.jp/jikoku/794.htm,0,,"Asia/Tokyo"
"P74",,"北新二丁目","",35.682226,138.567614,,http://yamanashikotsu.co.jp/jikoku/816.htm,0,,"Asia/Tokyo"
"P75",,"和田町","",35.685658,138.565447,,http://yamanashikotsu.co.jp/jikoku/1006.htm,0,,"Asia/Tokyo"
"P76",,"小松町","",35.688283,138.564637,,http://yamanashikotsu.co.jp/jikoku/354.htm,0,,"Asia/Tokyo"
"P77",,"HANAZONOホスピタル","",35.692069,138.562027,,http://yamanashikotsu.co.jp/jikoku/732.htm,0,,"Asia/Tokyo"
"P68",,"附属小学校","",35.680372,138.567335,,http://yamanashikotsu.co.jp/jikoku/794.htm,0,,"Asia/Tokyo"
"P66",,"北新小学校","",35.679076,138.565871,,http://yamanashikotsu.co.jp/jikoku/815.htm,0,,"Asia/Tokyo"
"P64",,"山梨県福祉プラザ","",35.677989,138.565587,,http://yamanashikotsu.co.jp/jikoku/952.htm,0,,"Asia/Tokyo"
"P62",,"国立病院","",35.676943,138.566893,,http://yamanashikotsu.co.jp/jikoku/334.htm,0,,"Asia/Tokyo"
"P60",,"美咲二丁目","",35.675755,138.567268,,http://yamanashikotsu.co.jp/jikoku/1011.htm,0,,"Asia/Tokyo"
"P58",,"朝日五丁目","",35.674479,138.566804,,http://yamanashikotsu.co.jp/jikoku/31.htm,0,,"Asia/Tokyo"
"P55",,"朝日四丁目","",35.673067,138.568344,,http://yamanashikotsu.co.jp/jikoku/36.htm,0,,"Asia/Tokyo"
"P78",,"鳥獣センター","",35.692890,138.559981,,http://yamanashikotsu.co.jp/jikoku/578.htm,0,,"Asia/Tokyo"
"P79",,"和田峠","",35.695670,138.560520,,http://yamanashikotsu.co.jp/jikoku/1005.htm,0,,"Asia/Tokyo"
"P80",,"千代田湖","",35.702895,138.558959,,http://yamanashikotsu.co.jp/jikoku/580.htm,0,,"Asia/Tokyo"
"P81",,"下帯那","",35.706406,138.561193,,http://yamanashikotsu.co.jp/jikoku/429.htm,0,,"Asia/Tokyo"
"P82",,"新井入口","",35.709259,138.565576,,http://yamanashikotsu.co.jp/jikoku/54.htm,0,,"Asia/Tokyo"
"P83",,"仲原","",35.710313,138.568808,,http://yamanashikotsu.co.jp/jikoku/661.htm,0,,"Asia/Tokyo"
"P84",,"上帯那","",35.708213,138.572646,,http://yamanashikotsu.co.jp/jikoku/210.htm,0,,"Asia/Tokyo"
"P69",,"塔岩住宅","",35.683289,138.569277,,http://yamanashikotsu.co.jp/jikoku/600.htm,0,,"Asia/Tokyo"
"P70",,"西田町","",35.686141,138.571286,,http://yamanashikotsu.co.jp/jikoku/692.htm,0,,"Asia/Tokyo"
"P71",,"小松入口","",35.687799,138.570589,,http://yamanashikotsu.co.jp/jikoku/353.htm,0,,"Asia/Tokyo"
"P72",,"塚原橋","",35.689516,138.570522,,http://yamanashikotsu.co.jp/jikoku/590.htm,0,,"Asia/Tokyo"
"P73",,"塚原","",35.691213,138.571222,,http://yamanashikotsu.co.jp/jikoku/588.htm,0,,"Asia/Tokyo"
"P281",,"湯田一丁目","",35.650078,138.578633,,http://yamanashikotsu.co.jp/jikoku/968.htm,0,,"Asia/Tokyo"
"P283",,"青沼三丁目","",35.651713,138.578992,,http://yamanashikotsu.co.jp/jikoku/10.htm,0,,"Asia/Tokyo"
"P288",,"青沼二丁目東","",35.654106,138.579515,,http://yamanashikotsu.co.jp/jikoku/12.htm,0,,"Asia/Tokyo"
"P304",,"青沼二丁目西","",35.655145,138.576589,,http://yamanashikotsu.co.jp/jikoku/11.htm,0,,"Asia/Tokyo"
"P303",,"青沼一丁目","",35.655561,138.573821,,http://yamanashikotsu.co.jp/jikoku/9.htm,0,,"Asia/Tokyo"
"P123",,"甲府駅バスターミナル(5番)","",35.666523,138.568652,,http://yamanashikotsu.co.jp/jikoku/310.htm,0,,"Asia/Tokyo"
"P307",,"法人会館","",35.657187,138.572552,,http://yamanashikotsu.co.jp/jikoku/811.htm,0,,"Asia/Tokyo"
"P306",,"城東二丁目西","",35.656937,138.574132,,http://yamanashikotsu.co.jp/jikoku/468.htm,0,,"Asia/Tokyo"
"P305",,"城東二丁目東","",35.656625,138.576122,,http://yamanashikotsu.co.jp/jikoku/469.htm,0,,"Asia/Tokyo"
"P321",,"ぴゅあ総合入口","",35.655391,138.579896,,http://yamanashikotsu.co.jp/jikoku/519.htm,0,,"Asia/Tokyo"
"P289",,"青沼二丁目東","",35.654204,138.579625,,http://yamanashikotsu.co.jp/jikoku/12.htm,0,,"Asia/Tokyo"
"P282",,"湯田一丁目","",35.650196,138.578721,,http://yamanashikotsu.co.jp/jikoku/968.htm,0,,"Asia/Tokyo"
"P120",,"甲府駅バスターミナル(4番)","",35.666678,138.568647,,http://yamanashikotsu.co.jp/jikoku/310.htm,0,,"Asia/Tokyo"
"P430",,"ダイタビル前","",35.665599,138.566249,,http://yamanashikotsu.co.jp/jikoku/527.htm,0,,"Asia/Tokyo"
"P146",,"宝一丁目","",35.667183,138.561711,,http://yamanashikotsu.co.jp/jikoku/532.htm,0,,"Asia/Tokyo"
"P426",,"飯田三丁目","",35.667863,138.558208,,http://yamanashikotsu.co.jp/jikoku/60.htm,0,,"Asia/Tokyo"
"P424",,"甲府地方気象台","",35.667663,138.554053,,http://yamanashikotsu.co.jp/jikoku/322.htm,0,,"Asia/Tokyo"
"P423",,"八幡神社入口","",35.667501,138.552277,,http://yamanashikotsu.co.jp/jikoku/730.htm,0,,"Asia/Tokyo"
"P421",,"甲府城西高校","",35.668162,138.547643,,http://yamanashikotsu.co.jp/jikoku/319.htm,0,,"Asia/Tokyo"
"P418",,"長松寺町","",35.668571,138.542742,,http://yamanashikotsu.co.jp/jikoku/579.htm,0,,"Asia/Tokyo"
"P416",,"東海高校","",35.668508,138.539805,,http://yamanashikotsu.co.jp/jikoku/601.htm,0,,"Asia/Tokyo"
"P415",,"池田二丁目","",35.670988,138.537447,,http://yamanashikotsu.co.jp/jikoku/69.htm,0,,"Asia/Tokyo"
"P414",,"長塚東","",35.672692,138.535329,,http://yamanashikotsu.co.jp/jikoku/658.htm,0,,"Asia/Tokyo"
"P413",,"長塚入口","",35.673701,138.533810,,http://yamanashikotsu.co.jp/jikoku/657.htm,0,,"Asia/Tokyo"
"P410",,"長塚(甲斐市)","",35.676901,138.533405,,http://yamanashikotsu.co.jp/jikoku/656.htm,0,,"Asia/Tokyo"
"P411",,"中下条","",35.679978,138.532995,,http://yamanashikotsu.co.jp/jikoku/648.htm,0,,"Asia/Tokyo"
"P438",,"中下条南","",35.676461,138.529656,,http://yamanashikotsu.co.jp/jikoku/1037.htm,0,,"Asia/Tokyo"
"P436",,"大下条北","",35.676494,138.526614,,http://yamanashikotsu.co.jp/jikoku/1038.htm,0,,"Asia/Tokyo"
"P442",,"さつきの団地","",35.677688,138.520311,,http://yamanashikotsu.co.jp/jikoku/1039.htm,0,,"Asia/Tokyo"
"P443",,"登美希望が丘","",35.678758,138.516709,,http://yamanashikotsu.co.jp/jikoku/1040.htm,0,,"Asia/Tokyo"
"P445",,"響が丘　レストラン山交入口","",35.681566,138.511819,,http://yamanashikotsu.co.jp/jikoku/1041.htm,0,,"Asia/Tokyo"
"P448",,"双葉ニュータウン","",35.683760,138.508337,,http://yamanashikotsu.co.jp/jikoku/1042.htm,0,,"Asia/Tokyo"
"P447",,"双葉ニュータウン","",35.683801,138.508480,,http://yamanashikotsu.co.jp/jikoku/1042.htm,0,,"Asia/Tokyo"
"P446",,"響が丘　レストラン山交入口","",35.681466,138.512001,,http://yamanashikotsu.co.jp/jikoku/1041.htm,0,,"Asia/Tokyo"
"P444",,"登美希望が丘","",35.679019,138.516167,,http://yamanashikotsu.co.jp/jikoku/1040.htm,0,,"Asia/Tokyo"
"P441",,"さつきの団地","",35.677755,138.520228,,http://yamanashikotsu.co.jp/jikoku/1039.htm,0,,"Asia/Tokyo"
"P435",,"大下条北","",35.676662,138.525493,,http://yamanashikotsu.co.jp/jikoku/1038.htm,0,,"Asia/Tokyo"
"P437",,"中下条南","",35.676553,138.529728,,http://yamanashikotsu.co.jp/jikoku/1037.htm,0,,"Asia/Tokyo"
"P412",,"長塚入口","",35.673709,138.533896,,http://yamanashikotsu.co.jp/jikoku/657.htm,0,,"Asia/Tokyo"
"P417",,"東海高校","",35.668556,138.540084,,http://yamanashikotsu.co.jp/jikoku/601.htm,0,,"Asia/Tokyo"
"P419",,"長松寺町","",35.668628,138.543383,,http://yamanashikotsu.co.jp/jikoku/579.htm,0,,"Asia/Tokyo"
"P420",,"甲府城西高校","",35.668395,138.547562,,http://yamanashikotsu.co.jp/jikoku/319.htm,0,,"Asia/Tokyo"
"P422",,"八幡神社入口","",35.667541,138.552208,,http://yamanashikotsu.co.jp/jikoku/730.htm,0,,"Asia/Tokyo"
"P425",,"甲府地方気象台","",35.667767,138.554329,,http://yamanashikotsu.co.jp/jikoku/322.htm,0,,"Asia/Tokyo"
"P427",,"飯田三丁目","",35.667987,138.557781,,http://yamanashikotsu.co.jp/jikoku/60.htm,0,,"Asia/Tokyo"
"P147",,"宝一丁目","",35.667345,138.561432,,http://yamanashikotsu.co.jp/jikoku/532.htm,0,,"Asia/Tokyo"
"P431",,"丸の内二丁目西","",35.665893,138.565498,,http://yamanashikotsu.co.jp/jikoku/853.htm,0,,"Asia/Tokyo"
"P126",,"丸の内二丁目東","",35.665887,138.567979,,http://yamanashikotsu.co.jp/jikoku/853.htm,0,,"Asia/Tokyo"
"P429",,"飯田二丁目","",35.668813,138.555166,,http://yamanashikotsu.co.jp/jikoku/61.htm,0,,"Asia/Tokyo"
"P404",,"並木通り商店街","",35.670888,138.552229,,http://yamanashikotsu.co.jp/jikoku/672.htm,0,,"Asia/Tokyo"
"P405",,"県立中央病院","",35.671243,138.550145,,http://yamanashikotsu.co.jp/jikoku/285.htm,0,,"Asia/Tokyo"
"P403",,"並木通り商店街","",35.670907,138.552704,,http://yamanashikotsu.co.jp/jikoku/672.htm,0,,"Asia/Tokyo"
"P401",,"県立中央病院入口","",35.671319,138.553675,,http://yamanashikotsu.co.jp/jikoku/286.htm,0,,"Asia/Tokyo"
"P399",,"千塚団地","",35.675426,138.552910,,http://yamanashikotsu.co.jp/jikoku/560.htm,0,,"Asia/Tokyo"
"P400",,"千塚団地","",35.674733,138.552881,,http://yamanashikotsu.co.jp/jikoku/560.htm,0,,"Asia/Tokyo"
"P402",,"県立中央病院入口","",35.671583,138.553594,,http://yamanashikotsu.co.jp/jikoku/286.htm,0,,"Asia/Tokyo"
"P428",,"飯田二丁目","",35.668663,138.555359,,http://yamanashikotsu.co.jp/jikoku/61.htm,0,,"Asia/Tokyo"
"P479",,"団地正門前","",35.664242,138.532644,,http://yamanashikotsu.co.jp/jikoku/557.htm,0,,"Asia/Tokyo"
"P480",,"貢川団地","",35.664501,138.533558,,http://yamanashikotsu.co.jp/jikoku/259.htm,0,,"Asia/Tokyo"
"P477",,"貢川団地入口","",35.662561,138.532273,,http://yamanashikotsu.co.jp/jikoku/260.htm,0,,"Asia/Tokyo"
"P486",,"竜王新町","",35.665878,138.518557,,http://yamanashikotsu.co.jp/jikoku/989.htm,0,,"Asia/Tokyo"
"P534",,"四ツ谷","",35.664769,138.509759,,http://yamanashikotsu.co.jp/jikoku/984.htm,0,,"Asia/Tokyo"
"P533",,"本竜王","",35.663871,138.506377,,http://yamanashikotsu.co.jp/jikoku/827.htm,0,,"Asia/Tokyo"
"P700",,"信玄橋","",35.663490,138.495975,,http://yamanashikotsu.co.jp/jikoku/489.htm,0,,"Asia/Tokyo"
"P531",,"野牛島東","",35.663875,138.489795,,http://yamanashikotsu.co.jp/jikoku/948.htm,0,,"Asia/Tokyo"
"P529",,"野牛島下","",35.662947,138.484407,,http://yamanashikotsu.co.jp/jikoku/926.htm,0,,"Asia/Tokyo"
"P528",,"野牛島","",35.662335,138.481885,,http://yamanashikotsu.co.jp/jikoku/924.htm,0,,"Asia/Tokyo"
"P508",,"野牛島上","",35.663198,138.475408,,http://yamanashikotsu.co.jp/jikoku/925.htm,0,,"Asia/Tokyo"
"P507",,"六科下","",35.662988,138.468748,,http://yamanashikotsu.co.jp/jikoku/911.htm,0,,"Asia/Tokyo"
"P505",,"六科","",35.662513,138.464132,,http://yamanashikotsu.co.jp/jikoku/908.htm,0,,"Asia/Tokyo"
"P523",,"宮入製作所","",35.662276,138.461592,,http://yamanashikotsu.co.jp/jikoku/899.htm,0,,"Asia/Tokyo"
"P524",,"六科上","",35.661842,138.457451,,http://yamanashikotsu.co.jp/jikoku/909.htm,0,,"Asia/Tokyo"
"P525",,"北新田入口","",35.661230,138.451488,,http://yamanashikotsu.co.jp/jikoku/240.htm,0,,"Asia/Tokyo"
"P526",,"富士通アイネット入口","",35.660831,138.447682,,http://yamanashikotsu.co.jp/jikoku/788.htm,0,,"Asia/Tokyo"
"P521",,"有野入口・わかば支援学校入口","",35.660393,138.444860,,http://yamanashikotsu.co.jp/jikoku/59.htm,0,,"Asia/Tokyo"
"P520",,"源","",35.659266,138.441639,,http://yamanashikotsu.co.jp/jikoku/886.htm,0,,"Asia/Tokyo"
"P515",,"御勅使","",35.661134,138.440553,,http://yamanashikotsu.co.jp/jikoku/30.htm,0,,"Asia/Tokyo"
"P519",,"源","",35.659203,138.441330,,http://yamanashikotsu.co.jp/jikoku/886.htm,0,,"Asia/Tokyo"
"P522",,"有野入口・わかば支援学校入口","",35.660665,138.445735,,http://yamanashikotsu.co.jp/jikoku/59.htm,0,,"Asia/Tokyo"
"P506",,"六科","",35.662718,138.465900,,http://yamanashikotsu.co.jp/jikoku/908.htm,0,,"Asia/Tokyo"
"P509",,"野牛島上","",35.662738,138.476247,,http://yamanashikotsu.co.jp/jikoku/925.htm,0,,"Asia/Tokyo"
"P510",,"野牛島","",35.662291,138.481491,,http://yamanashikotsu.co.jp/jikoku/924.htm,0,,"Asia/Tokyo"
"P530",,"野牛島東","",35.663919,138.489380,,http://yamanashikotsu.co.jp/jikoku/948.htm,0,,"Asia/Tokyo"
"P699",,"信玄橋","",35.663642,138.495546,,http://yamanashikotsu.co.jp/jikoku/489.htm,0,,"Asia/Tokyo"
"P532",,"本竜王","",35.663915,138.506194,,http://yamanashikotsu.co.jp/jikoku/827.htm,0,,"Asia/Tokyo"
"P487",,"竜王新町","",35.665839,138.517629,,http://yamanashikotsu.co.jp/jikoku/989.htm,0,,"Asia/Tokyo"
"P504",,"六科","",35.662882,138.464915,,http://yamanashikotsu.co.jp/jikoku/908.htm,0,,"Asia/Tokyo"
"P503",,"六科北口","",35.665290,138.464540,,http://yamanashikotsu.co.jp/jikoku/town/910.htm,0,,"Asia/Tokyo"
"P502",,"御勅使南公園入口","",35.668700,138.464738,,http://yamanashikotsu.co.jp/jikoku/town/868.htm,0,,"Asia/Tokyo"
"P501",,"真葛","",35.674119,138.464942,,http://yamanashikotsu.co.jp/jikoku/town/838.htm,0,,"Asia/Tokyo"
"P499",,"竜岡中央公民館","",35.678627,138.464607,,http://yamanashikotsu.co.jp/jikoku/town/544.htm,0,,"Asia/Tokyo"
"P498",,"土橋","",35.680607,138.459910,,http://yamanashikotsu.co.jp/jikoku/town/620.htm,0,,"Asia/Tokyo"
"P497",,"羽根","",35.685024,138.453272,,http://yamanashikotsu.co.jp/jikoku/town/736.htm,0,,"Asia/Tokyo"
"P496",,"南宮神社前","",35.685387,138.450243,,http://yamanashikotsu.co.jp/jikoku/town/678.htm,0,,"Asia/Tokyo"
"P495",,"若宮神社","",35.688239,138.449568,,http://yamanashikotsu.co.jp/jikoku/town/1004.htm,0,,"Asia/Tokyo"
"P494",,"タンガロイ前","",35.689479,138.448449,,http://yamanashikotsu.co.jp/jikoku/town/605.htm,0,,"Asia/Tokyo"
"P493",,"子の神前","",35.693470,138.445142,,http://yamanashikotsu.co.jp/jikoku/town/719.htm,0,,"Asia/Tokyo"
"P492",,"若尾","",35.696837,138.441494,,http://yamanashikotsu.co.jp/jikoku/town/994.htm,0,,"Asia/Tokyo"
"P491",,"若尾坂下","",35.696530,138.445821,,http://yamanashikotsu.co.jp/jikoku/town/995.htm,0,,"Asia/Tokyo"
"P490",,"老人福祉センター入口","",35.698395,138.448218,,http://yamanashikotsu.co.jp/jikoku/town/991.htm,0,,"Asia/Tokyo"
"P489",,"韮崎工業高校","",35.699024,138.450673,,http://yamanashikotsu.co.jp/jikoku/town/706.htm,0,,"Asia/Tokyo"
"P488",,"韮崎下町","",35.703376,138.454036,,http://yamanashikotsu.co.jp/jikoku/town/710.htm,0,,"Asia/Tokyo"
"P500",,"竜岡中央公民館","",35.678006,138.464875,,http://yamanashikotsu.co.jp/jikoku/town/544.htm,0,,"Asia/Tokyo"
"P121",,"甲府駅バスターミナル(1番)","",35.666534,138.568151,,http://yamanashikotsu.co.jp/jikoku/310.htm,0,,"Asia/Tokyo"
"P573",,"富竹","",35.657080,138.544695,,http://yamanashikotsu.co.jp/jikoku/623.htm,0,,"Asia/Tokyo"
"P572",,"富竹西","",35.654661,138.541959,,http://yamanashikotsu.co.jp/jikoku/624.htm,0,,"Asia/Tokyo"
"P570",,"徳行","",35.652401,138.539617,,http://yamanashikotsu.co.jp/jikoku/612.htm,0,,"Asia/Tokyo"
"P568",,"徳行南","",35.650965,138.533298,,http://yamanashikotsu.co.jp/jikoku/613.htm,0,,"Asia/Tokyo"
"P566",,"榎局","",35.650398,138.530230,,http://yamanashikotsu.co.jp/jikoku/120.htm,0,,"Asia/Tokyo"
"P564",,"榎","",35.649049,138.525930,,http://yamanashikotsu.co.jp/jikoku/119.htm,0,,"Asia/Tokyo"
"P562",,"篠原仲新居","",35.646453,138.523819,,http://yamanashikotsu.co.jp/jikoku/413.htm,0,,"Asia/Tokyo"
"P560",,"下八幡","",35.644890,138.522666,,http://yamanashikotsu.co.jp/jikoku/448.htm,0,,"Asia/Tokyo"
"P558",,"玉幡四ツ角","",35.642857,138.519246,,http://yamanashikotsu.co.jp/jikoku/550.htm,0,,"Asia/Tokyo"
"P556",,"農林高校","",35.639916,138.511811,,http://yamanashikotsu.co.jp/jikoku/720.htm,0,,"Asia/Tokyo"
"P553",,"上今諏訪","",35.637011,138.497327,,http://yamanashikotsu.co.jp/jikoku/206.htm,0,,"Asia/Tokyo"
"P595",,"白根高校入口","",35.639147,138.493518,,http://yamanashikotsu.co.jp/jikoku/484.htm,0,,"Asia/Tokyo"
"P596",,"西野東","",35.639591,138.486711,,http://yamanashikotsu.co.jp/jikoku/694.htm,0,,"Asia/Tokyo"
"P598",,"西野","",35.640121,138.482245,,http://yamanashikotsu.co.jp/jikoku/693.htm,0,,"Asia/Tokyo"
"P600",,"徳洲会病院入口","",35.640854,138.478632,,http://yamanashikotsu.co.jp/jikoku/1043.htm,0,,"Asia/Tokyo"
"P601",,"在家塚","",35.642591,138.469550,,http://yamanashikotsu.co.jp/jikoku/367.htm,0,,"Asia/Tokyo"
"P602",,"三階","",35.644232,138.464682,,http://yamanashikotsu.co.jp/jikoku/382.htm,0,,"Asia/Tokyo"
"P604",,"飯野上宿","",35.642013,138.464245,,http://yamanashikotsu.co.jp/jikoku/67.htm,0,,"Asia/Tokyo"
"P605",,"飯野","",35.637444,138.465374,,http://yamanashikotsu.co.jp/jikoku/1015.htm,0,,"Asia/Tokyo"
"P607",,"倉庫町","",35.633717,138.465972,,http://yamanashikotsu.co.jp/jikoku/520.htm,0,,"Asia/Tokyo"
"P609",,"巨摩共立病院","",35.629043,138.465199,,http://yamanashikotsu.co.jp/jikoku/351.htm,0,,"Asia/Tokyo"
"P610",,"桃園","",35.625421,138.464695,,http://yamanashikotsu.co.jp/jikoku/919.htm,0,,"Asia/Tokyo"
"P612",,"桃園新田","",35.620775,138.464634,,http://yamanashikotsu.co.jp/jikoku/920.htm,0,,"Asia/Tokyo"
"P615",,"春仙美術館","",35.617801,138.465374,,http://yamanashikotsu.co.jp/jikoku/262.htm,0,,"Asia/Tokyo"
"P616",,"巨摩高校","",35.615520,138.466436,,http://yamanashikotsu.co.jp/jikoku/352.htm,0,,"Asia/Tokyo"
"P619",,"小笠原橋","",35.611768,138.466860,,http://yamanashikotsu.co.jp/jikoku/161.htm,0,,"Asia/Tokyo"
"P631",,"小笠原","",35.608970,138.466844,,http://yamanashikotsu.co.jp/jikoku/158.htm,0,,"Asia/Tokyo"
"P633",,"小笠原下仲町","",35.605740,138.466514,,http://yamanashikotsu.co.jp/jikoku/159.htm,0,,"Asia/Tokyo"
"P634",,"小笠原下仲町","",35.605180,138.466339,,http://yamanashikotsu.co.jp/jikoku/159.htm,0,,"Asia/Tokyo"
"P632",,"小笠原","",35.608089,138.466809,,http://yamanashikotsu.co.jp/jikoku/158.htm,0,,"Asia/Tokyo"
"P618",,"小笠原橋","",35.611861,138.466693,,http://yamanashikotsu.co.jp/jikoku/161.htm,0,,"Asia/Tokyo"
"P617",,"巨摩高校","",35.614923,138.466685,,http://yamanashikotsu.co.jp/jikoku/352.htm,0,,"Asia/Tokyo"
"P614",,"春仙美術館","",35.617664,138.465344,,http://yamanashikotsu.co.jp/jikoku/262.htm,0,,"Asia/Tokyo"
"P613",,"桃園新田","",35.620738,138.464553,,http://yamanashikotsu.co.jp/jikoku/920.htm,0,,"Asia/Tokyo"
"P611",,"桃園","",35.625622,138.464655,,http://yamanashikotsu.co.jp/jikoku/919.htm,0,,"Asia/Tokyo"
"P608",,"巨摩共立病院","",35.630865,138.465500,,http://yamanashikotsu.co.jp/jikoku/351.htm,0,,"Asia/Tokyo"
"P606",,"飯野","",35.636917,138.465387,,http://yamanashikotsu.co.jp/jikoku/1015.htm,0,,"Asia/Tokyo"
"P603",,"三階","",35.644481,138.463920,,http://yamanashikotsu.co.jp/jikoku/382.htm,0,,"Asia/Tokyo"
"P599",,"徳洲会病院入口","",35.640915,138.478570,,http://yamanashikotsu.co.jp/jikoku/1043.htm,0,,"Asia/Tokyo"
"P597",,"西野","",35.640080,138.483117,,http://yamanashikotsu.co.jp/jikoku/693.htm,0,,"Asia/Tokyo"
"P594",,"白根高校入口","",35.639160,138.493837,,http://yamanashikotsu.co.jp/jikoku/484.htm,0,,"Asia/Tokyo"
"P552",,"上今諏訪","",35.637189,138.497370,,http://yamanashikotsu.co.jp/jikoku/206.htm,0,,"Asia/Tokyo"
"P554",,"農林高校","",35.639576,138.510845,,http://yamanashikotsu.co.jp/jikoku/720.htm,0,,"Asia/Tokyo"
"P557",,"玉幡四ツ角","",35.642584,138.517988,,http://yamanashikotsu.co.jp/jikoku/550.htm,0,,"Asia/Tokyo"
"P559",,"下八幡","",35.644034,138.521282,,http://yamanashikotsu.co.jp/jikoku/448.htm,0,,"Asia/Tokyo"
"P561",,"篠原仲新居","",35.645821,138.523310,,http://yamanashikotsu.co.jp/jikoku/413.htm,0,,"Asia/Tokyo"
"P563",,"榎","",35.648777,138.525635,,http://yamanashikotsu.co.jp/jikoku/119.htm,0,,"Asia/Tokyo"
"P565",,"榎局","",35.650466,138.530460,,http://yamanashikotsu.co.jp/jikoku/120.htm,0,,"Asia/Tokyo"
"P567",,"徳行南","",35.650873,138.532751,,http://yamanashikotsu.co.jp/jikoku/613.htm,0,,"Asia/Tokyo"
"P569",,"徳行","",35.651996,138.539110,,http://yamanashikotsu.co.jp/jikoku/612.htm,0,,"Asia/Tokyo"
"P571",,"富竹西","",35.654406,138.541637,,http://yamanashikotsu.co.jp/jikoku/624.htm,0,,"Asia/Tokyo"
"P574",,"富竹","",35.657431,138.545057,,http://yamanashikotsu.co.jp/jikoku/623.htm,0,,"Asia/Tokyo"
"P580",,"徳行(廃軌道)","",35.652342,138.541634,,http://yamanashikotsu.co.jp/jikoku/612.htm,0,,"Asia/Tokyo"
"P581",,"富竹西(廃軌道)","",35.654849,138.543992,,http://yamanashikotsu.co.jp/jikoku/624.htm,0,,"Asia/Tokyo"
"P579",,"富竹(廃軌道)","",35.657052,138.546087,,http://yamanashikotsu.co.jp/jikoku/623.htm,0,,"Asia/Tokyo"
"P578",,"貢川(廃軌道)","",35.658079,138.548544,,http://yamanashikotsu.co.jp/jikoku/257.htm,0,,"Asia/Tokyo"
"P577",,"貢川交番前(廃軌道)","",35.657802,138.550671,,http://yamanashikotsu.co.jp/jikoku/258.htm,0,,"Asia/Tokyo"
"P576",,"上石田町(廃軌道)","",35.657427,138.553565,,http://yamanashikotsu.co.jp/jikoku/200.htm,0,,"Asia/Tokyo"
"P583",,"今諏訪","",35.634423,138.495586,,http://yamanashikotsu.co.jp/jikoku/95.htm,0,,"Asia/Tokyo"
"P585",,"下今諏訪","",35.630377,138.494787,,http://yamanashikotsu.co.jp/jikoku/425.htm,0,,"Asia/Tokyo"
"P586",,"中条入口","",35.627255,138.491053,,http://yamanashikotsu.co.jp/jikoku/650.htm,0,,"Asia/Tokyo"
"P629",,"吉田","",35.623815,138.483514,,http://yamanashikotsu.co.jp/jikoku/610.htm,0,,"Asia/Tokyo"
"P627",,"ＪＡこま野豊支所","",35.620786,138.478908,,http://yamanashikotsu.co.jp/jikoku/970.htm,0,,"Asia/Tokyo"
"P626",,"十五所","",35.619386,138.476052,,http://yamanashikotsu.co.jp/jikoku/456.htm,0,,"Asia/Tokyo"
"P624",,"戸田町","",35.615311,138.470347,,http://yamanashikotsu.co.jp/jikoku/615.htm,0,,"Asia/Tokyo"
"P622",,"小笠原橋","",35.612123,138.467640,,http://yamanashikotsu.co.jp/jikoku/161.htm,0,,"Asia/Tokyo"
"P645",,"下宮地","",35.601379,138.465462,,http://yamanashikotsu.co.jp/jikoku/446.htm,0,,"Asia/Tokyo"
"P647",,"JAこま野大井支所","",35.596083,138.466388,,http://yamanashikotsu.co.jp/jikoku/388.htm,0,,"Asia/Tokyo"
"P649",,"古市場（南アルプス）","",35.591959,138.466602,,http://yamanashikotsu.co.jp/jikoku/801.htm,0,,"Asia/Tokyo"
"P651",,"荊沢","",35.587974,138.465996,,http://yamanashikotsu.co.jp/jikoku/747.htm,0,,"Asia/Tokyo"
"P653",,"甲西工業団地入口","",35.583893,138.465937,,http://yamanashikotsu.co.jp/jikoku/300.htm,0,,"Asia/Tokyo"
"P656",,"長沢新町","",35.575106,138.464548,,http://yamanashikotsu.co.jp/jikoku/643.htm,0,,"Asia/Tokyo"
"P658",,"長沢火の見","",35.571367,138.464674,,http://yamanashikotsu.co.jp/jikoku/644.htm,0,,"Asia/Tokyo"
"P659",,"長沢三丁目","",35.568264,138.464829,,http://yamanashikotsu.co.jp/jikoku/642.htm,0,,"Asia/Tokyo"
"P664",,"長沢","",35.566279,138.464703,,http://yamanashikotsu.co.jp/jikoku/641.htm,0,,"Asia/Tokyo"
"P662",,"増穂中学校入口","",35.564442,138.465261,,http://yamanashikotsu.co.jp/jikoku/844.htm,0,,"Asia/Tokyo"
"P661",,"追分","",35.561378,138.466490,,http://yamanashikotsu.co.jp/jikoku/130.htm,0,,"Asia/Tokyo"
"P4944",,"フォレストモール富士川","",35.557442,138.468842,,,0,,"Asia/Tokyo"
"P660",,"追分","",35.561542,138.466495,,http://yamanashikotsu.co.jp/jikoku/130.htm,0,,"Asia/Tokyo"
"P663",,"増穂中学校入口","",35.564867,138.465068,,http://yamanashikotsu.co.jp/jikoku/844.htm,0,,"Asia/Tokyo"
"P655",,"長沢新町","",35.575407,138.464548,,http://yamanashikotsu.co.jp/jikoku/643.htm,0,,"Asia/Tokyo"
"P654",,"甲西工業団地入口","",35.583452,138.465883,,http://yamanashikotsu.co.jp/jikoku/300.htm,0,,"Asia/Tokyo"
"P652",,"荊沢","",35.587047,138.465929,,http://yamanashikotsu.co.jp/jikoku/747.htm,0,,"Asia/Tokyo"
"P650",,"古市場（南アルプス）","",35.591826,138.466557,,http://yamanashikotsu.co.jp/jikoku/801.htm,0,,"Asia/Tokyo"
"P648",,"JAこま野大井支所","",35.596253,138.466347,,http://yamanashikotsu.co.jp/jikoku/388.htm,0,,"Asia/Tokyo"
"P646",,"下宮地","",35.601076,138.465248,,http://yamanashikotsu.co.jp/jikoku/446.htm,0,,"Asia/Tokyo"
"P621",,"小笠原橋","",35.611975,138.467436,,http://yamanashikotsu.co.jp/jikoku/161.htm,0,,"Asia/Tokyo"
"P623",,"戸田町","",35.615058,138.470178,,http://yamanashikotsu.co.jp/jikoku/615.htm,0,,"Asia/Tokyo"
"P625",,"十五所","",35.619430,138.476046,,http://yamanashikotsu.co.jp/jikoku/456.htm,0,,"Asia/Tokyo"
"P628",,"ＪＡこま野豊支所","",35.621008,138.479125,,http://yamanashikotsu.co.jp/jikoku/970.htm,0,,"Asia/Tokyo"
"P630",,"吉田","",35.624172,138.484477,,http://yamanashikotsu.co.jp/jikoku/610.htm,0,,"Asia/Tokyo"
"P587",,"中条入口","",35.627150,138.490798,,http://yamanashikotsu.co.jp/jikoku/650.htm,0,,"Asia/Tokyo"
"P584",,"下今諏訪","",35.631249,138.494897,,http://yamanashikotsu.co.jp/jikoku/425.htm,0,,"Asia/Tokyo"
"P582",,"今諏訪","",35.634667,138.495723,,http://yamanashikotsu.co.jp/jikoku/95.htm,0,,"Asia/Tokyo"
"P4822",,"甲府駅バスターミナル(2番)","",35.666704,138.568127,,http://yamanashikotsu.co.jp/jikoku/310.htm,0,,"Asia/Tokyo"
"P690",,"青柳","",35.559024,138.465588,,http://yamanashikotsu.co.jp/jikoku/16.htm,0,,"Asia/Tokyo"
"P692",,"ＪＡ富士川青柳支所","",35.556418,138.464215,,http://yamanashikotsu.co.jp/jikoku/273.htm,0,,"Asia/Tokyo"
"P693",,"増穂商業高校入口","",35.553824,138.462568,,http://yamanashikotsu.co.jp/jikoku/843.htm,0,,"Asia/Tokyo"
"P694",,"鰍沢警察署","",35.552024,138.461560,,http://yamanashikotsu.co.jp/jikoku/182.htm,0,,"Asia/Tokyo"
"P1147",,"小室山入口","",35.550029,138.460481,,http://yamanashikotsu.co.jp/jikoku/357.htm,0,,"Asia/Tokyo"
"P1148",,"南巨摩合同庁舎入口","",35.548250,138.459843,,http://yamanashikotsu.co.jp/jikoku/882.htm,0,,"Asia/Tokyo"
"P1150",,"鰍沢中学校入口","",35.545448,138.459274,,http://yamanashikotsu.co.jp/jikoku/183.htm,0,,"Asia/Tokyo"
"P1149",,"鰍沢本町","",35.544113,138.458717,,http://yamanashikotsu.co.jp/jikoku/185.htm,0,,"Asia/Tokyo"
"P1152",,"鰍沢営業所","",35.542144,138.457778,,http://yamanashikotsu.co.jp/jikoku/179.htm,0,,"Asia/Tokyo"
"P695",,"鰍沢警察署","",35.551912,138.461436,,http://yamanashikotsu.co.jp/jikoku/182.htm,0,,"Asia/Tokyo"
"P691",,"ＪＡ富士川青柳支所","",35.556613,138.464274,,http://yamanashikotsu.co.jp/jikoku/273.htm,0,,"Asia/Tokyo"
"P689",,"青柳","",35.559737,138.465824,,http://yamanashikotsu.co.jp/jikoku/16.htm,0,,"Asia/Tokyo"
"P348",,"朝日小学校入口","",35.673496,138.557215,,http://yamanashikotsu.co.jp/jikoku/2502.htm,0,,"Asia/Tokyo"
"P4208",,"甲府西高校","",35.661386,138.550923,,,0,,"Asia/Tokyo"
"P4205",,"甲府昭和高校入口","",35.645101,138.537008,,,0,,"Asia/Tokyo"
"P4210",,"農林高校入口","",35.638135,138.511183,,,0,,"Asia/Tokyo"
"P657",,"長沢新町","",35.574990,138.464529,,http://yamanashikotsu.co.jp/jikoku/643.htm,0,,"Asia/Tokyo"
"P4209",,"農林高校入口","",35.638248,138.511097,,,0,,"Asia/Tokyo"
"P4204",,"甲府昭和高校入口","",35.645241,138.536884,,,0,,"Asia/Tokyo"
"P347",,"朝日小学校入口","",35.673374,138.556990,,http://yamanashikotsu.co.jp/jikoku/2502.htm,0,,"Asia/Tokyo"
"P4212",,"小笠原車庫","",35.613315,138.450726,,,0,,"Asia/Tokyo"
"P4214",,"柿平上","",35.613755,138.454074,,,0,,"Asia/Tokyo"
"P4213",,"柿平下","",35.614082,138.456632,,,0,,"Asia/Tokyo"
"P688",,"滝沢川公園","",35.613789,138.460219,,http://yamanashikotsu.co.jp/jikoku/160.htm,0,,"Asia/Tokyo"
"P687",,"社会福祉会館","",35.612032,138.464408,,http://yamanashikotsu.co.jp/jikoku/453.htm,0,,"Asia/Tokyo"
"P117",,"甲府駅バスターミナル(6番・高速バス)","",35.666432,138.568542,,http://yamanashikotsu.co.jp/jikoku/310.htm,0,,"Asia/Tokyo"
"P686",,"社会福祉会館","",35.611833,138.464821,,http://yamanashikotsu.co.jp/jikoku/453.htm,0,,"Asia/Tokyo"
"P234",,"甲府市自治研修センター南","",35.655769,138.566490,,http://yamanashikotsu.co.jp/jikoku/987.htm,0,,"Asia/Tokyo"
"P237",,"相生三丁目","",35.653243,138.567405,,http://yamanashikotsu.co.jp/jikoku/1.htm,0,,"Asia/Tokyo"
"P238",,"伊勢一丁目","",35.650632,138.568290,,http://yamanashikotsu.co.jp/jikoku/76.htm,0,,"Asia/Tokyo"
"P794",,"千秋橋","",35.647462,138.564473,,http://yamanashikotsu.co.jp/jikoku/516.htm,0,,"Asia/Tokyo"
"P796",,"国母一丁目","",35.645533,138.562086,,http://yamanashikotsu.co.jp/jikoku/328.htm,0,,"Asia/Tokyo"
"P791",,"国母・下石田四ツ角","",35.644267,138.560493,,http://yamanashikotsu.co.jp/jikoku/331.htm,0,,"Asia/Tokyo"
"P729",,"国母小学校","",35.641120,138.556531,,http://yamanashikotsu.co.jp/jikoku/332.htm,0,,"Asia/Tokyo"
"P726",,"甲府市地方卸売市場入口","",35.639411,138.554394,,http://yamanashikotsu.co.jp/jikoku/324.htm,0,,"Asia/Tokyo"
"P724",,"上条","",35.636531,138.551170,,http://yamanashikotsu.co.jp/jikoku/217.htm,0,,"Asia/Tokyo"
"P723",,"国母八丁目","",35.634022,138.548404,,http://yamanashikotsu.co.jp/jikoku/333.htm,0,,"Asia/Tokyo"
"P722",,"国母駅入口","",35.631268,138.546022,,http://yamanashikotsu.co.jp/jikoku/329.htm,0,,"Asia/Tokyo"
"P720",,"押越","",35.626459,138.540975,,http://yamanashikotsu.co.jp/jikoku/163.htm,0,,"Asia/Tokyo"
"P719",,"押原","",35.623729,138.537759,,http://yamanashikotsu.co.jp/jikoku/164.htm,0,,"Asia/Tokyo"
"P718",,"中島","",35.621377,138.535066,,http://yamanashikotsu.co.jp/jikoku/645.htm,0,,"Asia/Tokyo"
"P716",,"上河東四ツ角","",35.619554,138.532890,,http://yamanashikotsu.co.jp/jikoku/212.htm,0,,"Asia/Tokyo"
"P714",,"上河東","",35.616763,138.529516,,http://yamanashikotsu.co.jp/jikoku/211.htm,0,,"Asia/Tokyo"
"P713",,"河西入口","",35.614520,138.526880,,http://yamanashikotsu.co.jp/jikoku/178.htm,0,,"Asia/Tokyo"
"P711",,"山の神入口","",35.610440,138.523889,,http://yamanashikotsu.co.jp/jikoku/959.htm,0,,"Asia/Tokyo"
"P710",,"小井川駅入口","",35.605889,138.522875,,http://yamanashikotsu.co.jp/jikoku/287.htm,0,,"Asia/Tokyo"
"P709",,"妙泉寺","",35.602216,138.522591,,http://yamanashikotsu.co.jp/jikoku/906.htm,0,,"Asia/Tokyo"
"P708",,"中央市田富庁舎入口","",35.600805,138.522749,,http://yamanashikotsu.co.jp/jikoku/546.htm,0,,"Asia/Tokyo"
"P701",,"田富学校","",35.596895,138.522768,,http://yamanashikotsu.co.jp/jikoku/545.htm,0,,"Asia/Tokyo"
"P706",,"花輪","",35.593761,138.521706,,http://yamanashikotsu.co.jp/jikoku/734.htm,0,,"Asia/Tokyo"
"P705",,"花輪西","",35.593708,138.518428,,http://yamanashikotsu.co.jp/jikoku/735.htm,0,,"Asia/Tokyo"
"P704",,"臼井入口","",35.593673,138.514587,,http://yamanashikotsu.co.jp/jikoku/106.htm,0,,"Asia/Tokyo"
"P678",,"浅原","",35.594262,138.504263,,http://yamanashikotsu.co.jp/jikoku/29.htm,0,,"Asia/Tokyo"
"P677",,"若草団地","",35.591566,138.501377,,http://yamanashikotsu.co.jp/jikoku/6011.htm,0,,"Asia/Tokyo"
"P676",,"一軒茶屋","",35.588103,138.497898,,http://yamanashikotsu.co.jp/jikoku/6010.htm,0,,"Asia/Tokyo"
"P675",,"やまなみの湯","",35.585692,138.496428,,http://yamanashikotsu.co.jp/jikoku/6009.htm,0,,"Asia/Tokyo"
"P674",,"南湖小学校","",35.583380,138.494403,,http://yamanashikotsu.co.jp/jikoku/6008.htm,0,,"Asia/Tokyo"
"P673",,"南湖北","",35.581805,138.493454,,http://yamanashikotsu.co.jp/jikoku/6007.htm,0,,"Asia/Tokyo"
"P672",,"南湖南","",35.579222,138.491448,,http://yamanashikotsu.co.jp/jikoku/6006.htm,0,,"Asia/Tokyo"
"P671",,"南湖下宿","",35.577495,138.489677,,http://yamanashikotsu.co.jp/jikoku/6005.htm,0,,"Asia/Tokyo"
"P669",,"三郡橋","",35.573282,138.484082,,http://yamanashikotsu.co.jp/jikoku/6004.htm,0,,"Asia/Tokyo"
"P668",,"横川","",35.569436,138.478511,,http://yamanashikotsu.co.jp/jikoku/6003.htm,0,,"Asia/Tokyo"
"P667",,"増穂橋","",35.565729,138.474292,,http://yamanashikotsu.co.jp/jikoku/6002.htm,0,,"Asia/Tokyo"
"P666",,"大椚","",35.564926,138.469765,,http://yamanashikotsu.co.jp/jikoku/134.htm,0,,"Asia/Tokyo"
"P670",,"三郡橋","",35.573620,138.484565,,http://yamanashikotsu.co.jp/jikoku/6004.htm,0,,"Asia/Tokyo"
"P703",,"花輪","",35.593817,138.521751,,http://yamanashikotsu.co.jp/jikoku/734.htm,0,,"Asia/Tokyo"
"P702",,"田富学校","",35.596683,138.522722,,http://yamanashikotsu.co.jp/jikoku/545.htm,0,,"Asia/Tokyo"
"P707",,"中央市田富庁舎入口","",35.599950,138.522722,,http://yamanashikotsu.co.jp/jikoku/546.htm,0,,"Asia/Tokyo"
"P712",,"河西入口","",35.614328,138.526660,,http://yamanashikotsu.co.jp/jikoku/178.htm,0,,"Asia/Tokyo"
"P715",,"上河東四ツ角","",35.619393,138.532625,,http://yamanashikotsu.co.jp/jikoku/212.htm,0,,"Asia/Tokyo"
"P717",,"中島","",35.620980,138.534535,,http://yamanashikotsu.co.jp/jikoku/645.htm,0,,"Asia/Tokyo"
"P721",,"国母駅入口","",35.631486,138.546135,,http://yamanashikotsu.co.jp/jikoku/329.htm,0,,"Asia/Tokyo"
"P725",,"上条","",35.636524,138.551060,,http://yamanashikotsu.co.jp/jikoku/217.htm,0,,"Asia/Tokyo"
"P727",,"甲府市地方卸売市場入口","",35.639687,138.554576,,http://yamanashikotsu.co.jp/jikoku/324.htm,0,,"Asia/Tokyo"
"P728",,"国母小学校","",35.640926,138.556145,,http://yamanashikotsu.co.jp/jikoku/332.htm,0,,"Asia/Tokyo"
"P792",,"国母・下石田四ツ角","",35.644583,138.560724,,http://yamanashikotsu.co.jp/jikoku/331.htm,0,,"Asia/Tokyo"
"P795",,"国母一丁目","",35.645337,138.561670,,http://yamanashikotsu.co.jp/jikoku/328.htm,0,,"Asia/Tokyo"
"P793",,"千秋橋","",35.647417,138.564251,,http://yamanashikotsu.co.jp/jikoku/516.htm,0,,"Asia/Tokyo"
"P239",,"伊勢一丁目","",35.650514,138.568140,,http://yamanashikotsu.co.jp/jikoku/76.htm,0,,"Asia/Tokyo"
"P236",,"相生三丁目","",35.653144,138.567252,,http://yamanashikotsu.co.jp/jikoku/1.htm,0,,"Asia/Tokyo"
"P235",,"甲府市自治研修センター南","",35.655633,138.566338,,http://yamanashikotsu.co.jp/jikoku/987.htm,0,,"Asia/Tokyo"
"P764",,"常永駅","",35.617522,138.533824,,http://yamanashikotsu.co.jp/jikoku/458.htm,0,,"Asia/Tokyo"
"P765",,"井之口西","",35.614642,138.535479,,http://yamanashikotsu.co.jp/jikoku/94.htm,0,,"Asia/Tokyo"
"P766",,"山梨大学医学部附属病院","",35.610372,138.539043,,http://yamanashikotsu.co.jp/jikoku/946.htm,0,,"Asia/Tokyo"
"P763",,"常永駅","",35.617553,138.533649,,http://yamanashikotsu.co.jp/jikoku/458.htm,0,,"Asia/Tokyo"
"P240",,"伊勢小学校正門","",35.645518,138.566941,,http://yamanashikotsu.co.jp/jikoku/79.htm,0,,"Asia/Tokyo"
"P243",,"伊勢三丁目","",35.641124,138.565825,,http://yamanashikotsu.co.jp/jikoku/77.htm,0,,"Asia/Tokyo"
"P790",,"甲府市地方卸売市場東口","",35.635088,138.563079,,http://yamanashikotsu.co.jp/jikoku/325.htm,0,,"Asia/Tokyo"
"P788",,"古上条町","",35.632978,138.562263,,http://yamanashikotsu.co.jp/jikoku/903.htm,0,,"Asia/Tokyo"
"P786",,"後屋町","",35.630272,138.561225,,http://yamanashikotsu.co.jp/jikoku/105.htm,0,,"Asia/Tokyo"
"P784",,"後屋団地","",35.627926,138.559133,,http://yamanashikotsu.co.jp/jikoku/104.htm,0,,"Asia/Tokyo"
"P782",,"大里北団地","",35.625543,138.557569,,http://yamanashikotsu.co.jp/jikoku/135.htm,0,,"Asia/Tokyo"
"P780",,"国母工業団地入口","",35.622064,138.557309,,http://yamanashikotsu.co.jp/jikoku/330.htm,0,,"Asia/Tokyo"
"P778",,"大里南団地","",35.619463,138.559584,,http://yamanashikotsu.co.jp/jikoku/139.htm,0,,"Asia/Tokyo"
"P774",,"古市場(大里)","",35.618826,138.560713,,http://yamanashikotsu.co.jp/jikoku/802.htm,0,,"Asia/Tokyo"
"P772",,"宮原","",35.614620,138.559216,,http://yamanashikotsu.co.jp/jikoku/903.htm,0,,"Asia/Tokyo"
"P770",,"高室入口","",35.611345,138.558087,,http://yamanashikotsu.co.jp/jikoku/531.htm,0,,"Asia/Tokyo"
"P769",,"中楯","",35.610202,138.548801,,http://yamanashikotsu.co.jp/jikoku/655.htm,0,,"Asia/Tokyo"
"P768",,"上成島","",35.608135,138.545320,,http://yamanashikotsu.co.jp/jikoku/222.htm,0,,"Asia/Tokyo"
"P767",,"医大宿舎入口","",35.606214,138.543992,,http://yamanashikotsu.co.jp/jikoku/82.htm,0,,"Asia/Tokyo"
"P771",,"高室入口","",35.611408,138.558017,,http://yamanashikotsu.co.jp/jikoku/531.htm,0,,"Asia/Tokyo"
"P773",,"古市場(大里)","",35.617939,138.560345,,http://yamanashikotsu.co.jp/jikoku/802.htm,0,,"Asia/Tokyo"
"P777",,"大里南団地","",35.619323,138.559881,,http://yamanashikotsu.co.jp/jikoku/139.htm,0,,"Asia/Tokyo"
"P779",,"国母工業団地入口","",35.621682,138.557293,,http://yamanashikotsu.co.jp/jikoku/330.htm,0,,"Asia/Tokyo"
"P781",,"大里北団地","",35.625613,138.557494,,http://yamanashikotsu.co.jp/jikoku/135.htm,0,,"Asia/Tokyo"
"P783",,"後屋団地","",35.627386,138.558334,,http://yamanashikotsu.co.jp/jikoku/104.htm,0,,"Asia/Tokyo"
"P785",,"後屋町","",35.630052,138.561121,,http://yamanashikotsu.co.jp/jikoku/105.htm,0,,"Asia/Tokyo"
"P787",,"古上条町","",35.632744,138.562118,,http://yamanashikotsu.co.jp/jikoku/903.htm,0,,"Asia/Tokyo"
"P789",,"甲府市地方卸売市場東口","",35.634652,138.562813,,http://yamanashikotsu.co.jp/jikoku/325.htm,0,,"Asia/Tokyo"
"P242",,"伊勢三丁目","",35.641965,138.565637,,http://yamanashikotsu.co.jp/jikoku/77.htm,0,,"Asia/Tokyo"
"P241",,"伊勢小学校正門","",35.645185,138.566651,,http://yamanashikotsu.co.jp/jikoku/79.htm,0,,"Asia/Tokyo"
"P762",,"上河東四ツ角","",35.619266,138.531785,,http://yamanashikotsu.co.jp/jikoku/212.htm,0,,"Asia/Tokyo"
"P4239",,"イオンモール甲府昭和","",35.622066,138.526670,,　,0,,"Asia/Tokyo"
"P758",,"曲淵","",35.627885,138.531807,,http://yamanashikotsu.co.jp/jikoku/833.htm,0,,"Asia/Tokyo"
"P756",,"昭和町役場入口","",35.629947,138.532778,,http://yamanashikotsu.co.jp/jikoku/475.htm,0,,"Asia/Tokyo"
"P754",,"五本杉","",35.632507,138.538901,,http://yamanashikotsu.co.jp/jikoku/349.htm,0,,"Asia/Tokyo"
"P752",,"西条","",35.634674,138.542254,,http://yamanashikotsu.co.jp/jikoku/368.htm,0,,"Asia/Tokyo"
"P751",,"ＮＴＴ新甲府ビル","",35.638294,138.546779,,http://yamanashikotsu.co.jp/jikoku/118.htm,0,,"Asia/Tokyo"
"P749",,"清水新居","",35.642432,138.551044,,http://yamanashikotsu.co.jp/jikoku/418.htm,0,,"Asia/Tokyo"
"P747",,"甲府市上下水道局","",35.644016,138.553106,,http://yamanashikotsu.co.jp/jikoku/314.htm,0,,"Asia/Tokyo"
"P745",,"南西中学校","",35.647757,138.556539,,http://yamanashikotsu.co.jp/jikoku/685.htm,0,,"Asia/Tokyo"
"P743",,"沼川橋","",35.650257,138.558208,,http://yamanashikotsu.co.jp/jikoku/715.htm,0,,"Asia/Tokyo"
"P741",,"石田小学校","",35.652107,138.559769,,http://yamanashikotsu.co.jp/jikoku/74.htm,0,,"Asia/Tokyo"
"P739",,"飯豊橋南","",35.654380,138.561984,,http://yamanashikotsu.co.jp/jikoku/66.htm,0,,"Asia/Tokyo"
"P737",,"飯豊橋北","",35.657462,138.564135,,http://yamanashikotsu.co.jp/jikoku/65.htm,0,,"Asia/Tokyo"
"P183",,"上町北","",35.689842,138.524026,,http://yamanashikotsu.co.jp/jikoku/1007.htm,0,,"Asia/Tokyo"
"P184",,"志麻の里","",35.691065,138.519246,,http://yamanashikotsu.co.jp/jikoku/415.htm,0,,"Asia/Tokyo"
"P185",,"敷島団地","",35.692620,138.517816,,http://yamanashikotsu.co.jp/jikoku/403.htm,0,,"Asia/Tokyo"
"P738",,"飯豊橋北","",35.657290,138.564098,,http://yamanashikotsu.co.jp/jikoku/65.htm,0,,"Asia/Tokyo"
"P740",,"飯豊橋南","",35.654156,138.561939,,http://yamanashikotsu.co.jp/jikoku/66.htm,0,,"Asia/Tokyo"
"P742",,"石田小学校","",35.651972,138.559678,,http://yamanashikotsu.co.jp/jikoku/74.htm,0,,"Asia/Tokyo"
"P744",,"沼川橋","",35.649897,138.558084,,http://yamanashikotsu.co.jp/jikoku/715.htm,0,,"Asia/Tokyo"
"P746",,"南西中学校","",35.647720,138.556601,,http://yamanashikotsu.co.jp/jikoku/685.htm,0,,"Asia/Tokyo"
"P748",,"甲府市上下水道局","",35.643936,138.553090,,http://yamanashikotsu.co.jp/jikoku/314.htm,0,,"Asia/Tokyo"
"P750",,"清水新居","",35.642366,138.551052,,http://yamanashikotsu.co.jp/jikoku/418.htm,0,,"Asia/Tokyo"
"P753",,"西条","",35.634562,138.542259,,http://yamanashikotsu.co.jp/jikoku/368.htm,0,,"Asia/Tokyo"
"P755",,"五本杉","",35.632446,138.538995,,http://yamanashikotsu.co.jp/jikoku/349.htm,0,,"Asia/Tokyo"
"P757",,"昭和町役場入口","",35.629899,138.532874,,http://yamanashikotsu.co.jp/jikoku/475.htm,0,,"Asia/Tokyo"
"P759",,"曲淵","",35.627711,138.531890,,http://yamanashikotsu.co.jp/jikoku/833.htm,0,,"Asia/Tokyo"
"P244",,"住吉二丁目","",35.637791,138.566839,,http://yamanashikotsu.co.jp/jikoku/105.htm,0,,"Asia/Tokyo"
"P247",,"彩火橋北","",35.634168,138.568119,,http://yamanashikotsu.co.jp/jikoku/365.htm,0,,"Asia/Tokyo"
"P249",,"彩火橋南","",35.630878,138.569972,,http://yamanashikotsu.co.jp/jikoku/366.htm,0,,"Asia/Tokyo"
"P250",,"南甲府警察署","",35.629047,138.571533,,http://yamanashikotsu.co.jp/jikoku/881.htm,0,,"Asia/Tokyo"
"P323",,"甲府商業高校入口","",35.625502,138.571914,,http://yamanashikotsu.co.jp/jikoku/318.htm,0,,"Asia/Tokyo"
"P800",,"上今井町西","",35.622110,138.572292,,http://yamanashikotsu.co.jp/jikoku/205.htm,0,,"Asia/Tokyo"
"P801",,"駿台今井キャンパス","",35.622240,138.574628,,http://yamanashikotsu.co.jp/jikoku/508.htm,0,,"Asia/Tokyo"
"P799",,"上今井町西","",35.622264,138.572128,,http://yamanashikotsu.co.jp/jikoku/205.htm,0,,"Asia/Tokyo"
"P322",,"甲府商業高校入口","",35.626769,138.571584,,http://yamanashikotsu.co.jp/jikoku/318.htm,0,,"Asia/Tokyo"
"P351",,"南甲府警察署","",35.628517,138.571420,,http://yamanashikotsu.co.jp/jikoku/881.htm,0,,"Asia/Tokyo"
"P248",,"彩火橋南","",35.631079,138.569401,,http://yamanashikotsu.co.jp/jikoku/366.htm,0,,"Asia/Tokyo"
"P246",,"彩火橋北","",35.634334,138.567874,,http://yamanashikotsu.co.jp/jikoku/365.htm,0,,"Asia/Tokyo"
"P245",,"住吉二丁目","",35.637338,138.566807,,http://yamanashikotsu.co.jp/jikoku/105.htm,0,,"Asia/Tokyo"
"P293",,"若松町南","",35.653583,138.571841,,http://yamanashikotsu.co.jp/jikoku/999.htm,0,,"Asia/Tokyo"
"P4215",,"甲斐清和高校","",35.651470,138.573470,,,0,,"Asia/Tokyo"
"P257",,"伊勢町営業所","",35.640306,138.570168,,http://yamanashikotsu.co.jp/jikoku/80.htm,0,,"Asia/Tokyo"
"P256",,"甲府職業安定所","",35.638070,138.570433,,http://yamanashikotsu.co.jp/jikoku/320.htm,0,,"Asia/Tokyo"
"P255",,"甲斐住吉駅","",35.636633,138.570618,,http://yamanashikotsu.co.jp/jikoku/175.htm,0,,"Asia/Tokyo"
"P252",,"中小河原","",35.631746,138.571179,,http://yamanashikotsu.co.jp/jikoku/639.htm,0,,"Asia/Tokyo"
"P251",,"甲府南高校","",35.630348,138.571259,,http://yamanashikotsu.co.jp/jikoku/327.htm,0,,"Asia/Tokyo"
"P913",,"甲府商業高校","",35.628035,138.573132,,http://yamanashikotsu.co.jp/jikoku/317.htm,0,,"Asia/Tokyo"
"P911",,"山城小学校","",35.626721,138.578901,,http://yamanashikotsu.co.jp/jikoku/942.htm,0,,"Asia/Tokyo"
"P915",,"小瀬スポーツ公園正門","",35.625628,138.587814,,http://yamanashikotsu.co.jp/jikoku/339.htm,0,,"Asia/Tokyo"
"P916",,"陸上競技場入口","",35.622219,138.591194,,http://yamanashikotsu.co.jp/jikoku/986.htm,0,,"Asia/Tokyo"
"P917",,"小瀬スポーツ公園","",35.620156,138.585749,,http://yamanashikotsu.co.jp/jikoku/339.htm,0,,"Asia/Tokyo"
"P910",,"山城小学校","",35.626721,138.578611,,http://yamanashikotsu.co.jp/jikoku/942.htm,0,,"Asia/Tokyo"
"P914",,"甲府商業高校","",35.627935,138.573250,,http://yamanashikotsu.co.jp/jikoku/317.htm,0,,"Asia/Tokyo"
"P253",,"中小河原","",35.631920,138.571088,,http://yamanashikotsu.co.jp/jikoku/639.htm,0,,"Asia/Tokyo"
"P254",,"甲斐住吉駅","",35.636535,138.570583,,http://yamanashikotsu.co.jp/jikoku/175.htm,0,,"Asia/Tokyo"
"P141",,"商工会議所","",35.657963,138.568896,,http://yamanashikotsu.co.jp/jikoku/461.htm,0,,"Asia/Tokyo"
"P269",,"住吉五丁目","",35.637566,138.575301,,http://yamanashikotsu.co.jp/jikoku/504.htm,0,,"Asia/Tokyo"
"P920",,"日吉神社","",35.634604,138.577056,,http://yamanashikotsu.co.jp/jikoku/773.htm,0,,"Asia/Tokyo"
"P918",,"山城郵便局","",35.629217,138.578678,,http://yamanashikotsu.co.jp/jikoku/943.htm,0,,"Asia/Tokyo"
"P912",,"山城小学校","",35.626660,138.579504,,http://yamanashikotsu.co.jp/jikoku/942.htm,0,,"Asia/Tokyo"
"P909",,"下鍛冶屋","",35.621591,138.582152,,http://yamanashikotsu.co.jp/jikoku/430.htm,0,,"Asia/Tokyo"
"P907",,"落合","",35.615880,138.584670,,http://yamanashikotsu.co.jp/jikoku/166.htm,0,,"Asia/Tokyo"
"P908",,"落合下","",35.611778,138.587290,,http://yamanashikotsu.co.jp/jikoku/167.htm,0,,"Asia/Tokyo"
"P4905",,"中道橋","",35.605589,138.591287,,http://yamanashikotsu.co.jp/jikoku/663.htm,0,,"Asia/Tokyo"
"P889",,"中村入口","",35.603614,138.590738,,http://yamanashikotsu.co.jp/jikoku/665.htm,0,,"Asia/Tokyo"
"P888",,"宮下","",35.599824,138.590882,,http://yamanashikotsu.co.jp/jikoku/901.htm,0,,"Asia/Tokyo"
"P890",,"間門","",35.595082,138.586296,,http://yamanashikotsu.co.jp/jikoku/832.htm,0,,"Asia/Tokyo"
"P892",,"県立考古博物館","",35.594683,138.582305,,http://yamanashikotsu.co.jp/jikoku/284.htm,0,,"Asia/Tokyo"
"P895",,"銚子塚古墳入口","",35.595148,138.577522,,http://yamanashikotsu.co.jp/jikoku/577.htm,0,,"Asia/Tokyo"
"P896",,"下曽根","",35.593794,138.574125,,http://yamanashikotsu.co.jp/jikoku/439.htm,0,,"Asia/Tokyo"
"P897",,"高部入口","",35.588846,138.561164,,http://yamanashikotsu.co.jp/jikoku/530.htm,0,,"Asia/Tokyo"
"P898",,"浅利橋","",35.587112,138.551529,,http://yamanashikotsu.co.jp/jikoku/40.htm,0,,"Asia/Tokyo"
"P899",,"豊積橋","",35.585982,138.547431,,http://yamanashikotsu.co.jp/jikoku/629.htm,0,,"Asia/Tokyo"
"P900",,"浅利下","",35.583581,138.547927,,http://yamanashikotsu.co.jp/jikoku/39.htm,0,,"Asia/Tokyo"
"P901",,"浅利上","",35.580132,138.548246,,http://yamanashikotsu.co.jp/jikoku/38.htm,0,,"Asia/Tokyo"
"P902",,"作興橋","",35.576194,138.550617,,http://yamanashikotsu.co.jp/jikoku/379.htm,0,,"Asia/Tokyo"
"P903",,"豊富診療所","",35.573182,138.554142,,http://yamanashikotsu.co.jp/jikoku/631.htm,0,,"Asia/Tokyo"
"P904",,"中央市豊富庁舎入口","",35.571183,138.556126,,http://yamanashikotsu.co.jp/jikoku/632.htm,0,,"Asia/Tokyo"
"P905",,"木原","",35.568949,138.558382,,http://yamanashikotsu.co.jp/jikoku/248.htm,0,,"Asia/Tokyo"
"P906",,"豊富","",35.567007,138.562708,,http://yamanashikotsu.co.jp/jikoku/630.htm,0,,"Asia/Tokyo"
"P894",,"銚子塚古墳入口","",35.594879,138.579821,,http://yamanashikotsu.co.jp/jikoku/577.htm,0,,"Asia/Tokyo"
"P893",,"県立考古博物館","",35.594794,138.582299,,http://yamanashikotsu.co.jp/jikoku/284.htm,0,,"Asia/Tokyo"
"P919",,"山城郵便局","",35.629282,138.578611,,http://yamanashikotsu.co.jp/jikoku/943.htm,0,,"Asia/Tokyo"
"P921",,"日吉神社","",35.633405,138.577276,,http://yamanashikotsu.co.jp/jikoku/773.htm,0,,"Asia/Tokyo"
"P268",,"住吉五丁目","",35.637813,138.575060,,http://yamanashikotsu.co.jp/jikoku/504.htm,0,,"Asia/Tokyo"
"P140",,"商工会議所","",35.657865,138.569468,,http://yamanashikotsu.co.jp/jikoku/461.htm,0,,"Asia/Tokyo"
"P886",,"中道橋","",35.608800,138.592642,,http://yamanashikotsu.co.jp/jikoku/663.htm,0,,"Asia/Tokyo"
"P885",,"坂下","",35.610357,138.600388,,http://yamanashikotsu.co.jp/jikoku/376.htm,0,,"Asia/Tokyo"
"P884",,"白井","",35.608420,138.604154,,http://yamanashikotsu.co.jp/jikoku/477.htm,0,,"Asia/Tokyo"
"P1178",,"境川橋","",35.605380,138.609014,,http://yamanashikotsu.co.jp/jikoku/373.htm,0,,"Asia/Tokyo"
"P883",,"三椚","",35.604270,138.613290,,http://yamanashikotsu.co.jp/jikoku/872.htm,0,,"Asia/Tokyo"
"P874",,"境川スポーツ広場","",35.603950,138.615749,,http://yamanashikotsu.co.jp/jikoku/372.htm,0,,"Asia/Tokyo"
"P876",,"石橋","",35.603690,138.618823,,http://yamanashikotsu.co.jp/jikoku/75.htm,0,,"Asia/Tokyo"
"P877",,"下小山","",35.604024,138.622425,,http://yamanashikotsu.co.jp/jikoku/437.htm,0,,"Asia/Tokyo"
"P878",,"小山","",35.606314,138.625759,,http://yamanashikotsu.co.jp/jikoku/359.htm,0,,"Asia/Tokyo"
"P880",,"御所","",35.608994,138.631378,,http://yamanashikotsu.co.jp/jikoku/337.htm,0,,"Asia/Tokyo"
"P882",,"御所農協","",35.611114,138.633631,,http://yamanashikotsu.co.jp/jikoku/338.htm,0,,"Asia/Tokyo"
"P873",,"永井","",35.612758,138.636507,,http://yamanashikotsu.co.jp/jikoku/636.htm,0,,"Asia/Tokyo"
"P872",,"八代局入口","",35.614988,138.637920,,http://yamanashikotsu.co.jp/jikoku/928.htm,0,,"Asia/Tokyo"
"P832",,"八代四ツ角","",35.616944,138.638881,,http://yamanashikotsu.co.jp/jikoku/931.htm,0,,"Asia/Tokyo"
"P871",,"北八代","",35.621412,138.640672,,http://yamanashikotsu.co.jp/jikoku/247.htm,0,,"Asia/Tokyo"
"P870",,"大庭","",35.625077,138.641686,,http://yamanashikotsu.co.jp/jikoku/978.htm,0,,"Asia/Tokyo"
"P869",,"下田","",35.631351,138.637580,,http://yamanashikotsu.co.jp/jikoku/440.htm,0,,"Asia/Tokyo"
"P868",,"日の出町","",35.636625,138.637464,,http://yamanashikotsu.co.jp/jikoku/769.htm,0,,"Asia/Tokyo"
"P867",,"笛吹高校","",35.646455,138.643116,,http://yamanashikotsu.co.jp/jikoku/73.htm,0,,"Asia/Tokyo"
"P111",,"鵜飼山","",35.650076,138.639884,,http://yamanashikotsu.co.jp/jikoku/102.htm,0,,"Asia/Tokyo"
"P4394",,"石和八幡宮","",35.650150,138.636864,,http://yamanashikotsu.co.jp/jikoku/72.htm,0,,"Asia/Tokyo"
"P314",,"甲運橋","",35.650815,138.633621,,http://yamanashikotsu.co.jp/jikoku/294.htm,0,,"Asia/Tokyo"
"P316",,"平等橋","",35.651636,138.629158,,http://yamanashikotsu.co.jp/jikoku/772.htm,0,,"Asia/Tokyo"
"P317",,"山梨県青少年センター","",35.652318,138.625614,,http://yamanashikotsu.co.jp/jikoku/256.htm,0,,"Asia/Tokyo"
"P319",,"甲運小学校入口","",35.652709,138.622634,,http://yamanashikotsu.co.jp/jikoku/293.htm,0,,"Asia/Tokyo"
"P1170",,"和戸","",35.653160,138.619571,,http://yamanashikotsu.co.jp/jikoku/1008.htm,0,,"Asia/Tokyo"
"P1168",,"山梨英和大学入口","",35.653587,138.616594,,http://yamanashikotsu.co.jp/jikoku/116.htm,0,,"Asia/Tokyo"
"P866",,"中央自動車教習所","",35.654457,138.610881,,http://yamanashikotsu.co.jp/jikoku/569.htm,0,,"Asia/Tokyo"
"P864",,"甲運松原","",35.654729,138.609374,,http://yamanashikotsu.co.jp/jikoku/296.htm,0,,"Asia/Tokyo"
"P861",,"山崎","",35.656573,138.605154,,http://yamanashikotsu.co.jp/jikoku/941.htm,0,,"Asia/Tokyo"
"P859",,"山梨学院大学","",35.657885,138.600943,,http://yamanashikotsu.co.jp/jikoku/947.htm,0,,"Asia/Tokyo"
"P858",,"酒折駅入口","",35.658146,138.599189,,http://yamanashikotsu.co.jp/jikoku/374.htm,0,,"Asia/Tokyo"
"P856",,"酒折宮前","",35.658715,138.594785,,http://yamanashikotsu.co.jp/jikoku/375.htm,0,,"Asia/Tokyo"
"P849",,"善光寺入口","",35.659175,138.590418,,http://yamanashikotsu.co.jp/jikoku/515.htm,0,,"Asia/Tokyo"
"P850",,"甲府市障害者センター入口","",35.659491,138.586588,,http://yamanashikotsu.co.jp/jikoku/313.htm,0,,"Asia/Tokyo"
"P853",,"城東三丁目","",35.660230,138.583075,,http://yamanashikotsu.co.jp/jikoku/467.htm,0,,"Asia/Tokyo"
"P1160",,"甲府市立図書館入口","",35.660779,138.580427,,http://yamanashikotsu.co.jp/jikoku/321.htm,0,,"Asia/Tokyo"
"P1158",,"城東一丁目","",35.660373,138.578941,,http://yamanashikotsu.co.jp/jikoku/466.htm,0,,"Asia/Tokyo"
"P1156",,"中央三丁目","",35.660138,138.576238,,http://yamanashikotsu.co.jp/jikoku/568.htm,0,,"Asia/Tokyo"
"P313",,"NTT甲府ビル","",35.660657,138.573201,,http://yamanashikotsu.co.jp/jikoku/117.htm,0,,"Asia/Tokyo"
"P131",,"甲府警察署","",35.661544,138.568014,,http://yamanashikotsu.co.jp/jikoku/312.htm,0,,"Asia/Tokyo"
"P409",,"荒川団地","",35.677004,138.534811,,http://yamanashikotsu.co.jp/jikoku/1034.htm,0,,"Asia/Tokyo"
"P408",,"荒川一丁目","",35.673877,138.541471,,http://yamanashikotsu.co.jp/jikoku/1035.htm,0,,"Asia/Tokyo"
"P406",,"県立大学看護学部","",35.670500,138.544743,,http://yamanashikotsu.co.jp/jikoku/1036.htm,0,,"Asia/Tokyo"
"P407",,"県立大学看護学部","",35.670406,138.544156,,http://yamanashikotsu.co.jp/jikoku/1036.htm,0,,"Asia/Tokyo"
"P290",,"甲府市総合市民会館","",35.653086,138.575191,,http://yamanashikotsu.co.jp/jikoku/312.htm,0,,"Asia/Tokyo"
"P280",,"湯田二丁目","",35.647353,138.579424,,http://yamanashikotsu.co.jp/jikoku/971.htm,0,,"Asia/Tokyo"
"P814",,"青葉町","",35.646837,138.582326,,http://yamanashikotsu.co.jp/jikoku/15.htm,0,,"Asia/Tokyo"
"P815",,"青葉町東","",35.645285,138.584984,,http://yamanashikotsu.co.jp/jikoku/15.htm,0,,"Asia/Tokyo"
"P816",,"山梨自治会館前","",35.643936,138.587683,,http://yamanashikotsu.co.jp/jikoku/956.htm,0,,"Asia/Tokyo"
"P817",,"蓬沢一丁目","",35.642218,138.592165,,http://yamanashikotsu.co.jp/jikoku/985.htm,0,,"Asia/Tokyo"
"P818",,"西高橋","",35.639456,138.599144,,http://yamanashikotsu.co.jp/jikoku/691.htm,0,,"Asia/Tokyo"
"P819",,"大黒橋","",35.636357,138.601509,,http://yamanashikotsu.co.jp/jikoku/525.htm,0,,"Asia/Tokyo"
"P820",,"東高橋","",35.633431,138.608993,,http://yamanashikotsu.co.jp/jikoku/757.htm,0,,"Asia/Tokyo"
"P821",,"富士見農協","",35.630399,138.612150,,http://yamanashikotsu.co.jp/jikoku/1017.htm,0,,"Asia/Tokyo"
"P822",,"河内","",35.629003,138.613858,,http://yamanashikotsu.co.jp/jikoku/303.htm,0,,"Asia/Tokyo"
"P823",,"小石和","",35.628070,138.618498,,http://yamanashikotsu.co.jp/jikoku/291.htm,0,,"Asia/Tokyo"
"P824",,"小石和集荷場前","",35.627477,138.621098,,http://yamanashikotsu.co.jp/jikoku/292.htm,0,,"Asia/Tokyo"
"P825",,"大間田","",35.624486,138.626027,,http://yamanashikotsu.co.jp/jikoku/156.htm,0,,"Asia/Tokyo"
"P826",,"八代南中央","",35.621990,138.630869,,http://yamanashikotsu.co.jp/jikoku/930.htm,0,,"Asia/Tokyo"
"P827",,"中央道八代停留所","",35.620553,138.633725,,http://yamanashikotsu.co.jp/jikoku/571.htm,0,,"Asia/Tokyo"
"P829",,"県営八代団地","",35.619687,138.635421,,http://yamanashikotsu.co.jp/jikoku/276.htm,0,,"Asia/Tokyo"
"P830",,"八代四ツ角","",35.617877,138.638878,,http://yamanashikotsu.co.jp/jikoku/931.htm,0,,"Asia/Tokyo"
"P834",,"笛吹市役所八代支所","",35.616578,138.641919,,http://yamanashikotsu.co.jp/jikoku/929.htm,0,,"Asia/Tokyo"
"P836",,"森の上","",35.614182,138.646254,,http://yamanashikotsu.co.jp/jikoku/922.htm,0,,"Asia/Tokyo"
"P837",,"下高家","",35.612073,138.651085,,http://yamanashikotsu.co.jp/jikoku/435.htm,0,,"Asia/Tokyo"
"P838",,"高家岡入口","",35.610438,138.652828,,http://yamanashikotsu.co.jp/jikoku/297.htm,0,,"Asia/Tokyo"
"P839",,"辻","",35.608098,138.654555,,http://yamanashikotsu.co.jp/jikoku/592.htm,0,,"Asia/Tokyo"
"P840",,"下之川","",35.605328,138.656688,,http://yamanashikotsu.co.jp/jikoku/444.htm,0,,"Asia/Tokyo"
"P842",,"竹居","",35.602166,138.658300,,http://yamanashikotsu.co.jp/jikoku/3062-1.htm,0,,"Asia/Tokyo"
"P843",,"門林下","",35.599298,138.660274,,http://yamanashikotsu.co.jp/jikoku/194.htm,0,,"Asia/Tokyo"
"P844",,"門林","",35.597015,138.664351,,http://yamanashikotsu.co.jp/jikoku/193.htm,0,,"Asia/Tokyo"
"P845",,"奈良原","",35.591719,138.669305,,http://yamanashikotsu.co.jp/jikoku/3065-1.htm,0,,"Asia/Tokyo"
"P835",,"笛吹市役所八代支所","",35.616157,138.642925,,http://yamanashikotsu.co.jp/jikoku/929.htm,0,,"Asia/Tokyo"
"P833",,"八代四ツ角","",35.617134,138.640012,,http://yamanashikotsu.co.jp/jikoku/931.htm,0,,"Asia/Tokyo"
"P828",,"県営八代団地","",35.619807,138.635184,,http://yamanashikotsu.co.jp/jikoku/276.htm,0,,"Asia/Tokyo"
"P279",,"湯田二丁目","",35.647441,138.578536,,http://yamanashikotsu.co.jp/jikoku/971.htm,0,,"Asia/Tokyo"
"P291",,"甲府市総合市民会館","",35.652983,138.575264,,http://yamanashikotsu.co.jp/jikoku/312.htm,0,,"Asia/Tokyo"
"P292",,"若松町南","",35.653530,138.571715,,http://yamanashikotsu.co.jp/jikoku/999.htm,0,,"Asia/Tokyo"
"P1155",,"中央三丁目","",35.660382,138.574993,,http://yamanashikotsu.co.jp/jikoku/568.htm,0,,"Asia/Tokyo"
"P1157",,"城東一丁目","",35.659894,138.577992,,http://yamanashikotsu.co.jp/jikoku/466.htm,0,,"Asia/Tokyo"
"P1159",,"甲府市立図書館入口","",35.660910,138.580030,,http://yamanashikotsu.co.jp/jikoku/321.htm,0,,"Asia/Tokyo"
"P852",,"城東三丁目","",35.660288,138.583085,,http://yamanashikotsu.co.jp/jikoku/467.htm,0,,"Asia/Tokyo"
"P1164",,"甲府市障害者センター入口","",35.659659,138.586221,,http://yamanashikotsu.co.jp/jikoku/313.htm,0,,"Asia/Tokyo"
"P848",,"善光寺入口","",35.659371,138.589759,,http://yamanashikotsu.co.jp/jikoku/515.htm,0,,"Asia/Tokyo"
"P855",,"酒折宮前","",35.658791,138.594455,,http://yamanashikotsu.co.jp/jikoku/375.htm,0,,"Asia/Tokyo"
"P857",,"酒折駅入口","",35.658458,138.597416,,http://yamanashikotsu.co.jp/jikoku/374.htm,0,,"Asia/Tokyo"
"P860",,"山梨学院大学","",35.657821,138.601802,,http://yamanashikotsu.co.jp/jikoku/947.htm,0,,"Asia/Tokyo"
"P862",,"山崎","",35.656063,138.606394,,http://yamanashikotsu.co.jp/jikoku/941.htm,0,,"Asia/Tokyo"
"P863",,"甲運松原","",35.654914,138.608883,,http://yamanashikotsu.co.jp/jikoku/296.htm,0,,"Asia/Tokyo"
"P1167",,"山梨英和大学入口","",35.653770,138.615564,,http://yamanashikotsu.co.jp/jikoku/116.htm,0,,"Asia/Tokyo"
"P1169",,"和戸","",35.653282,138.619121,,http://yamanashikotsu.co.jp/jikoku/1008.htm,0,,"Asia/Tokyo"
"P315",,"甲運橋","",35.651283,138.633076,,http://yamanashikotsu.co.jp/jikoku/294.htm,0,,"Asia/Tokyo"
"P4393",,"石和八幡宮","",35.650307,138.636660,,http://yamanashikotsu.co.jp/jikoku/72.htm,0,,"Asia/Tokyo"
"P110",,"鵜飼山","",35.650084,138.639543,,http://yamanashikotsu.co.jp/jikoku/102.htm,0,,"Asia/Tokyo"
"P831",,"八代四ツ角","",35.618272,138.639556,,http://yamanashikotsu.co.jp/jikoku/931.htm,0,,"Asia/Tokyo"
"P879",,"御所","",35.609092,138.631515,,http://yamanashikotsu.co.jp/jikoku/337.htm,0,,"Asia/Tokyo"
"P875",,"石橋","",35.603645,138.618646,,http://yamanashikotsu.co.jp/jikoku/75.htm,0,,"Asia/Tokyo"
"P887",,"中道橋","",35.608656,138.592637,,http://yamanashikotsu.co.jp/jikoku/663.htm,0,,"Asia/Tokyo"
"P851",,"甲府市障害者センター入口","",35.659652,138.586213,,http://yamanashikotsu.co.jp/jikoku/313.htm,0,,"Asia/Tokyo"
"P100",,"山梨英和大学","",35.659587,138.614784,,http://yamanashikotsu.co.jp/jikoku/115.htm,0,,"Asia/Tokyo"
"P4388",,"石和温泉駅入口","",35.651274,138.635858,,http://yamanashikotsu.co.jp/jikoku/71.htm,0,,"Asia/Tokyo"
"P105",,"石和温泉駅","",35.657278,138.634870,,http://yamanashikotsu.co.jp/jikoku/70.htm,0,,"Asia/Tokyo"
"P318",,"山梨県青少年センター","",35.652251,138.625539,,http://yamanashikotsu.co.jp/jikoku/256.htm,0,,"Asia/Tokyo"
"P320",,"甲運小学校入口","",35.652778,138.621940,,http://yamanashikotsu.co.jp/jikoku/293.htm,0,,"Asia/Tokyo"
"P865",,"中央自動車教習所","",35.654515,138.610894,,http://yamanashikotsu.co.jp/jikoku/569.htm,0,,"Asia/Tokyo"
"P87",,"愛宕トンネル","",35.669269,138.586752,,http://yamanashikotsu.co.jp/jikoku/1022.htm,0,,"Asia/Tokyo"
"P91",,"かいてらす・善光寺北","",35.667379,138.592519,,,0,,"Asia/Tokyo"
"P89",,"愛宕山こどもの国","",35.672792,138.584831,,http://yamanashikotsu.co.jp/jikoku/43.htm,0,,"Asia/Tokyo"
"P90",,"県立科学館","",35.670365,138.580620,,http://yamanashikotsu.co.jp/jikoku/281.htm,0,,"Asia/Tokyo"
"P88",,"愛宕トンネル","",35.669053,138.586677,,http://yamanashikotsu.co.jp/jikoku/1022.htm,0,,"Asia/Tokyo"
"P349",,"塩部三丁目","",35.676161,138.558505,,http://yamanashikotsu.co.jp/jikoku/2501.htm,0,,"Asia/Tokyo"
"P346",,"甲府工業高校","",35.670676,138.560016,,http://yamanashikotsu.co.jp/jikoku/2503.htm,0,,"Asia/Tokyo"
"P1165",,"中央自動車教習所","",35.654524,138.610892,,http://yamanashikotsu.co.jp/jikoku/569.htm,0,,"Asia/Tokyo"
"P112",,"笛吹高校","",35.646368,138.644017,,http://yamanashikotsu.co.jp/jikoku/73.htm,0,,"Asia/Tokyo"
"P114",,"長塚(笛吹市)","",35.644468,138.648984,,http://yamanashikotsu.co.jp/jikoku/656.htm,0,,"Asia/Tokyo"
"P116",,"山梨県立博物館","",35.641159,138.650497,,http://yamanashikotsu.co.jp/jikoku/2513.htm,0,,"Asia/Tokyo"
"P115",,"長塚(笛吹市)","",35.644241,138.649060,,http://yamanashikotsu.co.jp/jikoku/656.htm,0,,"Asia/Tokyo"
"P113",,"笛吹高校","",35.645867,138.646380,,http://yamanashikotsu.co.jp/jikoku/73.htm,0,,"Asia/Tokyo"
"P106",,"石和温泉駅","",35.657241,138.634885,,http://yamanashikotsu.co.jp/jikoku/70.htm,0,,"Asia/Tokyo"
"P343",,"朝日二丁目","",35.669497,138.564817,,http://yamanashikotsu.co.jp/jikoku/2504.htm,0,,"Asia/Tokyo"
"P345",,"甲府工業高校","",35.670650,138.559404,,http://yamanashikotsu.co.jp/jikoku/2503.htm,0,,"Asia/Tokyo"
"P350",,"塩部三丁目","",35.675716,138.558082,,http://yamanashikotsu.co.jp/jikoku/2501.htm,0,,"Asia/Tokyo"
"P1614",,"塩山駅南口(1番)","",35.704953,138.734123,,http://www.city.koshu.yamanashi.jp/koshu_wdm/html/citizen/57776474354.html,0,,"Asia/Tokyo"
"P1796",,"上於曽","",35.705230,138.730499,,http://www.city.koshu.yamanashi.jp/koshu_wdm/html/citizen/57776474354.html,0,,"Asia/Tokyo"
"P1626",,"菅田神社","",35.704417,138.726109,,http://www.city.koshu.yamanashi.jp/koshu_wdm/html/citizen/57776474354.html,0,,"Asia/Tokyo"
"P1627",,"仲沢","",35.708085,138.725006,,http://www.city.koshu.yamanashi.jp/koshu_wdm/html/citizen/57776474354.html,0,,"Asia/Tokyo"
"P1628",,"向岳寺","",35.708952,138.722783,,http://www.city.koshu.yamanashi.jp/koshu_wdm/html/citizen/57776474354.html,0,,"Asia/Tokyo"
"P1629",,"向岳寺西","",35.711095,138.720913,,http://www.city.koshu.yamanashi.jp/koshu_wdm/html/citizen/57776474354.html,0,,"Asia/Tokyo"
"P1630",,"上井尻中","",35.713316,138.719502,,http://www.city.koshu.yamanashi.jp/koshu_wdm/html/citizen/57776474354.html,0,,"Asia/Tokyo"
"P1631",,"上井尻","",35.715146,138.718424,,http://www.city.koshu.yamanashi.jp/koshu_wdm/html/citizen/57776474354.html,0,,"Asia/Tokyo"
"P1565",,"追手先","",35.719039,138.716335,,http://www.city.koshu.yamanashi.jp/koshu_wdm/html/citizen/57776474354.html,0,,"Asia/Tokyo"
"P1566",,"天王宿","",35.723077,138.714800,,http://www.city.koshu.yamanashi.jp/koshu_wdm/html/citizen/57776474354.html,0,,"Asia/Tokyo"
"P1634",,"恵林寺（山梨交通）","",35.726371,138.714036,,http://www.city.koshu.yamanashi.jp/koshu_wdm/html/citizen/57776474354.html,0,,"Asia/Tokyo"
"P1635",,"放光寺入口","",35.733615,138.711960,,http://www.city.koshu.yamanashi.jp/koshu_wdm/html/citizen/57776474354.html,0,,"Asia/Tokyo"
"P1636",,"諏訪橋","",35.735699,138.712188,,http://www.city.koshu.yamanashi.jp/koshu_wdm/html/citizen/57776474354.html,0,,"Asia/Tokyo"
"P1637",,"窪平（山梨交通）","",35.738529,138.713371,,http://www.city.koshu.yamanashi.jp/koshu_wdm/html/citizen/57776474354.html,0,,"Asia/Tokyo"
"P1638",,"室伏（山梨交通）","",35.751963,138.717429,,http://www.city.koshu.yamanashi.jp/koshu_wdm/html/citizen/57776474354.html,0,,"Asia/Tokyo"
"P1639",,"馬込(山梨交通）","",35.775334,138.738739,,http://www.city.koshu.yamanashi.jp/koshu_wdm/html/citizen/57776474354.html,0,,"Asia/Tokyo"
"P1640",,"乾徳山登山口(山梨交通）","",35.779473,138.733026,,http://www.city.koshu.yamanashi.jp/koshu_wdm/html/citizen/57776474354.html,0,,"Asia/Tokyo"
"P1641",,"市営笛吹の湯（山梨交通）","",35.789508,138.738712,,http://www.city.koshu.yamanashi.jp/koshu_wdm/html/citizen/57776474354.html,0,,"Asia/Tokyo"
"P1642",,"川浦温泉（山梨交通）","",35.799420,138.747432,,http://www.city.koshu.yamanashi.jp/koshu_wdm/html/citizen/57776474354.html,0,,"Asia/Tokyo"
"P4556",,"天科（山梨交通）","",35.809429,138.751477,,,0,,"Asia/Tokyo"
"P1644",,"新地平（山梨交通）","",35.848352,138.760618,,http://www.city.koshu.yamanashi.jp/koshu_wdm/html/citizen/57776474354.html,0,,"Asia/Tokyo"
"P1645",,"西沢渓谷入口（山梨交通）","",35.862587,138.755369,,http://www.city.koshu.yamanashi.jp/koshu_wdm/html/citizen/57776474354.html,0,,"Asia/Tokyo"
"P1604",,"甲州市役所（山梨交通）","",35.704944,138.729735,,http://www.city.koshu.yamanashi.jp/koshu_wdm/html/citizen/57776474354.html,0,,"Asia/Tokyo"
"P1633",,"天王宿","",35.722262,138.714672,,http://www.city.koshu.yamanashi.jp/koshu_wdm/html/citizen/57776474354.html,0,,"Asia/Tokyo"
"P1795",,"塩山駅南口(2番)","",35.705031,138.734367,,http://www.city.koshu.yamanashi.jp/koshu_wdm/html/citizen/57776474354.html,0,,"Asia/Tokyo"
"P4325",,"塩山高校（山梨交通）","",35.718533,138.727010,,,0,,"Asia/Tokyo"
"P4945",,"塩山営業所","",35.701258,138.730256,,,0,,"Asia/Tokyo"
"P4946",,"下於曽","",35.696886,138.727242,,,0,,"Asia/Tokyo"
"P4947",,"熊野神社","",35.691193,138.725330,,,0,,"Asia/Tokyo"
"P4948",,"熊野橋西","",35.687296,138.725831,,,0,,"Asia/Tokyo"
"P4949",,"山区","",35.680956,138.725601,,,0,,"Asia/Tokyo"
"P4973",,"小佐手（山梨交通）","",35.676381,138.725936,,,0,,"Asia/Tokyo"
"P4950",,"小佐手交差点南","",35.671405,138.726560,,,0,,"Asia/Tokyo"
"P4951",,"勝沼病院","",35.669523,138.726270,,,0,,"Asia/Tokyo"
"P4952",,"甲州市勝沼支所","",35.665315,138.723847,,,0,,"Asia/Tokyo"
"P4953",,"諏訪神社","",35.665326,138.718808,,,0,,"Asia/Tokyo"
"P4954",,"等々力四ツ角","",35.666172,138.713765,,,0,,"Asia/Tokyo"
"P4955",,"等々力下","",35.665780,138.711770,,,0,,"Asia/Tokyo"
"P4956",,"矢作橋","",35.664231,138.704273,,,0,,"Asia/Tokyo"
"P4957",,"下栗原","",35.664671,138.694090,,,0,,"Asia/Tokyo"
"P4958",,"日川小学校","",35.662914,138.689523,,,0,,"Asia/Tokyo"
"P4959",,"歌田","",35.662135,138.686622,,,0,,"Asia/Tokyo"
"P4960",,"日川高校","",35.662277,138.683380,,,0,,"Asia/Tokyo"
"P4961",,"一丁田中","",35.662932,138.679819,,,0,,"Asia/Tokyo"
"P4962",,"金田","",35.656880,138.677758,,,0,,"Asia/Tokyo"
"P4963",,"七五三石","",35.651414,138.678533,,,0,,"Asia/Tokyo"
"P4964",,"竹原田","",35.651639,138.672552,,,0,,"Asia/Tokyo"
"P4965",,"坪井共撰所","",35.652607,138.669767,,,0,,"Asia/Tokyo"
"P4966",,"坪井","",35.653409,138.667034,,,0,,"Asia/Tokyo"
"P4967",,"一宮温泉病院","",35.654572,138.664005,,,0,,"Asia/Tokyo"
"P4968",,"笛吹橋西","",35.657094,138.656678,,,0,,"Asia/Tokyo"
"P4969",,"中島入口","",35.653633,138.649945,,,0,,"Asia/Tokyo"
"P4970",,"八田入口","",35.652183,138.647331,,,0,,"Asia/Tokyo"
"P4971",,"笛吹高校入口","",35.648880,138.641421,,,0,,"Asia/Tokyo"
"P1166",,"中央自動車教習所","",35.654215,138.612152,,http://yamanashikotsu.co.jp/jikoku/569.htm,0,,"Asia/Tokyo"
"P4972",,"笛吹高校入口","",35.649048,138.641463,,,0,,"Asia/Tokyo"
"P204",,"穴観音入口","",35.708518,138.448747,,http://yamanashikotsu.co.jp/jikoku/town/47.htm,0,,"Asia/Tokyo"
"P205",,"韮崎市役所","",35.709827,138.446944,,http://yamanashikotsu.co.jp/jikoku/town/711.htm,0,,"Asia/Tokyo"
"P206",,"青坂入口","",35.712127,138.444222,,http://yamanashikotsu.co.jp/jikoku/town/8.htm,0,,"Asia/Tokyo"
"P207",,"青坂","",35.714009,138.440121,,http://yamanashikotsu.co.jp/jikoku/town/7.htm,0,,"Asia/Tokyo"
"P210",,"一ツ谷","",35.718645,138.435086,,http://yamanashikotsu.co.jp/jikoku/town/766.htm,0,,"Asia/Tokyo"
"P211",,"祖母石住宅","",35.721740,138.431186,,http://yamanashikotsu.co.jp/jikoku/town/112.htm,0,,"Asia/Tokyo"
"P212",,"祖母石下","",35.726354,138.424827,,http://yamanashikotsu.co.jp/jikoku/town/111.htm,0,,"Asia/Tokyo"
"P213",,"祖母石中","",35.731725,138.420407,,http://yamanashikotsu.co.jp/jikoku/town/113.htm,0,,"Asia/Tokyo"
"P215",,"祖母石上","",35.734608,138.418419,,http://yamanashikotsu.co.jp/jikoku/town/110.htm,0,,"Asia/Tokyo"
"P216",,"入戸野入口","",35.747464,138.410751,,http://yamanashikotsu.co.jp/jikoku/town/701.htm,0,,"Asia/Tokyo"
"P218",,"穴山三ツ石","",35.750933,138.408895,,http://yamanashikotsu.co.jp/jikoku/town/50.htm,0,,"Asia/Tokyo"
"P219",,"穴山三軒屋","",35.752812,138.407875,,http://yamanashikotsu.co.jp/jikoku/town/48.htm,0,,"Asia/Tokyo"
"P221",,"上新田","",35.758580,138.406513,,http://yamanashikotsu.co.jp/jikoku/town/218.htm,0,,"Asia/Tokyo"
"P223",,"穴山橋","",35.761249,138.401315,,http://yamanashikotsu.co.jp/jikoku/town/49.htm,0,,"Asia/Tokyo"
"P225",,"円野中","",35.766563,138.396353,,http://yamanashikotsu.co.jp/jikoku/town/857.htm,0,,"Asia/Tokyo"
"P227",,"円野上","",35.770170,138.393968,,http://yamanashikotsu.co.jp/jikoku/town/856.htm,0,,"Asia/Tokyo"
"P229",,"宮の脇","",35.775242,138.392195,,http://yamanashikotsu.co.jp/jikoku/town/902.htm,0,,"Asia/Tokyo"
"P231",,"牧の原下","",35.782008,138.388118,,http://yamanashikotsu.co.jp/jikoku/town/836.htm,0,,"Asia/Tokyo"
"P1112",,"牧の原中","",35.783487,138.385425,,http://yamanashikotsu.co.jp/jikoku/town/837.htm,0,,"Asia/Tokyo"
"P1005",,"牧の原","",35.785152,138.382373,,http://yamanashikotsu.co.jp/jikoku/town/834.htm,0,,"Asia/Tokyo"
"P1001",,"下三吹","",35.787958,138.378806,,http://yamanashikotsu.co.jp/jikoku/town/445.htm,0,,"Asia/Tokyo"
"P4051",,"上三吹下","",35.792949,138.372889,,,0,,"Asia/Tokyo"
"P995",,"上三吹","",35.796661,138.363753,,http://yamanashikotsu.co.jp/jikoku/town/224.htm,0,,"Asia/Tokyo"
"P993",,"花水坂","",35.801900,138.355728,,http://yamanashikotsu.co.jp/jikoku/town/733.htm,0,,"Asia/Tokyo"
"P992",,"台ヶ原下","",35.806494,138.348609,,http://yamanashikotsu.co.jp/jikoku/town/523.htm,0,,"Asia/Tokyo"
"P991",,"台ヶ原中","",35.806907,138.346176,,http://yamanashikotsu.co.jp/jikoku/town/524.htm,0,,"Asia/Tokyo"
"P990",,"台ヶ原上","",35.807558,138.340930,,http://yamanashikotsu.co.jp/jikoku/town/522.htm,0,,"Asia/Tokyo"
"P989",,"白須下","",35.808251,138.337805,,http://yamanashikotsu.co.jp/jikoku/town/481.htm,0,,"Asia/Tokyo"
"P987",,"白須","",35.809072,138.333862,,http://yamanashikotsu.co.jp/jikoku/town/480.htm,0,,"Asia/Tokyo"
"P985",,"道の駅はくしゅう","",35.811090,138.331371,,http://yamanashikotsu.co.jp/jikoku/town/482.htm,0,,"Asia/Tokyo"
"P1120",,"前沢","",35.819649,138.319303,,http://yamanashikotsu.co.jp/jikoku/town/828.htm,0,,"Asia/Tokyo"
"P1121",,"県営白州団地入口","",35.825068,138.314132,,http://yamanashikotsu.co.jp/jikoku/town/829.htm,0,,"Asia/Tokyo"
"P1122",,"松原下","",35.828096,138.310018,,http://yamanashikotsu.co.jp/jikoku/town/848.htm,0,,"Asia/Tokyo"
"P1123",,"松原上","",35.830357,138.307620,,http://yamanashikotsu.co.jp/jikoku/town/847.htm,0,,"Asia/Tokyo"
"P2332",,"荒田","",35.835020,138.305383,,http://yamanashikotsu.co.jp/jikoku/town/58.htm,0,,"Asia/Tokyo"
"P1124",,"下教来石下","",35.838577,138.303494,,http://yamanashikotsu.co.jp/jikoku/town/433.htm,0,,"Asia/Tokyo"
"P986",,"道の駅はくしゅう","",35.810879,138.331647,,http://yamanashikotsu.co.jp/jikoku/town/482.htm,0,,"Asia/Tokyo"
"P988",,"白須","",35.809061,138.334050,,http://yamanashikotsu.co.jp/jikoku/town/480.htm,0,,"Asia/Tokyo"
"P994",,"上三吹","",35.796816,138.363587,,http://yamanashikotsu.co.jp/jikoku/town/224.htm,0,,"Asia/Tokyo"
"P1004",,"牧の原","",35.785363,138.382091,,http://yamanashikotsu.co.jp/jikoku/town/834.htm,0,,"Asia/Tokyo"
"P1111",,"牧の原中","",35.783816,138.384967,,http://yamanashikotsu.co.jp/jikoku/town/837.htm,0,,"Asia/Tokyo"
"P232",,"牧の原下","",35.781953,138.388416,,http://yamanashikotsu.co.jp/jikoku/town/836.htm,0,,"Asia/Tokyo"
"P230",,"宮の脇","",35.774742,138.392479,,http://yamanashikotsu.co.jp/jikoku/town/902.htm,0,,"Asia/Tokyo"
"P228",,"円野上","",35.769776,138.394285,,http://yamanashikotsu.co.jp/jikoku/town/856.htm,0,,"Asia/Tokyo"
"P226",,"円野中","",35.766785,138.396272,,http://yamanashikotsu.co.jp/jikoku/town/857.htm,0,,"Asia/Tokyo"
"P222",,"穴山橋","",35.761736,138.401138,,http://yamanashikotsu.co.jp/jikoku/town/49.htm,0,,"Asia/Tokyo"
"P220",,"上新田","",35.757979,138.406636,,http://yamanashikotsu.co.jp/jikoku/town/218.htm,0,,"Asia/Tokyo"
"P217",,"入戸野入口","",35.747788,138.410678,,http://yamanashikotsu.co.jp/jikoku/town/701.htm,0,,"Asia/Tokyo"
"P214",,"祖母石中","",35.731651,138.420605,,http://yamanashikotsu.co.jp/jikoku/town/113.htm,0,,"Asia/Tokyo"
"P209",,"一ツ谷","",35.718356,138.435494,,http://yamanashikotsu.co.jp/jikoku/town/766.htm,0,,"Asia/Tokyo"
"P208",,"青坂","",35.715174,138.438632,,http://yamanashikotsu.co.jp/jikoku/town/7.htm,0,,"Asia/Tokyo"
"P2336",,"身延駅","",35.361624,138.452733,,http://yamanashikotsu.co.jp/jikoku/town/887.htm,0,"S1711","Asia/Tokyo"
"P2337",,"しょうにん会館","",35.362884,138.452625,,http://yamanashikotsu.co.jp/jikoku/town/474.htm,0,,"Asia/Tokyo"
"P2338",,"身延橋南","",35.364144,138.452926,,http://yamanashikotsu.co.jp/jikoku/town/890.htm,0,,"Asia/Tokyo"
"P2339",,"大野","",35.365473,138.449042,,http://yamanashikotsu.co.jp/jikoku/town/153.htm,0,,"Asia/Tokyo"
"P2340",,"隧道北口","",35.368413,138.447239,,http://yamanashikotsu.co.jp/jikoku/town/497.htm,0,,"Asia/Tokyo"
"P2341",,"身延支所入口","",35.370145,138.443871,,http://yamanashikotsu.co.jp/jikoku/town/894.htm,0,,"Asia/Tokyo"
"P2403",,"JAふじかわ支所","",35.370460,138.439965,,http://yamanashikotsu.co.jp/jikoku/town/896.htm,0,,"Asia/Tokyo"
"P2404",,"身延高校","",35.370793,138.437390,,http://yamanashikotsu.co.jp/jikoku/town/888.htm,0,,"Asia/Tokyo"
"P2405",,"身延小学校","",35.371143,138.435051,,http://yamanashikotsu.co.jp/jikoku/town/895.htm,0,,"Asia/Tokyo"
"P2406",,"身延駐在所","",35.371055,138.432927,,http://yamanashikotsu.co.jp/jikoku/town/892.htm,0,,"Asia/Tokyo"
"P2407",,"通学橋","",35.370758,138.431425,,http://yamanashikotsu.co.jp/jikoku/town/584.htm,0,,"Asia/Tokyo"
"P2408",,"鏡円坊","",35.368763,138.429515,,http://yamanashikotsu.co.jp/jikoku/town/250.htm,0,,"Asia/Tokyo"
"P2409",,"総門","",35.368833,138.426554,,http://yamanashikotsu.co.jp/jikoku/town/521.htm,0,,"Asia/Tokyo"
"P2411",,"元町","",35.370863,138.425674,,http://yamanashikotsu.co.jp/jikoku/town/618.htm,0,,"Asia/Tokyo"
"P2412",,"香雲橋","",35.372805,138.425245,,http://yamanashikotsu.co.jp/jikoku/town/295.htm,0,,"Asia/Tokyo"
"P2413",,"橘町","",35.374904,138.425267,,http://yamanashikotsu.co.jp/jikoku/town/543.htm,0,,"Asia/Tokyo"
"P2414",,"身延山","",35.376322,138.425310,,http://yamanashikotsu.co.jp/jikoku/town/889.htm,0,,"Asia/Tokyo"
"P1037",,"韮崎高校","",35.714338,138.448079,,http://yamanashikotsu.co.jp/jikoku/town/707.htm,0,,"Asia/Tokyo"
"P1039",,"韮崎東中","",35.717883,138.448827,,http://yamanashikotsu.co.jp/jikoku/town/714.htm,0,,"Asia/Tokyo"
"P1042",,"雇用促進住宅入口","",35.721829,138.447521,,http://yamanashikotsu.co.jp/jikoku/town/360.htm,0,,"Asia/Tokyo"
"P1044",,"文化ホール入口","",35.726968,138.446773,,http://yamanashikotsu.co.jp/jikoku/town/805.htm,0,,"Asia/Tokyo"
"P1045",,"絵見堂","",35.728642,138.447580,,http://yamanashikotsu.co.jp/jikoku/town/122.htm,0,,"Asia/Tokyo"
"P1050",,"鳥居","",35.734064,138.446295,,http://yamanashikotsu.co.jp/jikoku/town/633.htm,0,,"Asia/Tokyo"
"P1054",,"明野三之蔵","",35.745409,138.448202,,http://yamanashikotsu.co.jp/jikoku/town/18.htm,0,,"Asia/Tokyo"
"P1055",,"厚芝入口","",35.747516,138.448476,,http://yamanashikotsu.co.jp/jikoku/town/44.htm,0,,"Asia/Tokyo"
"P1056",,"厚芝上","",35.749993,138.448106,,http://yamanashikotsu.co.jp/jikoku/town/45.htm,0,,"Asia/Tokyo"
"P1057",,"明野保育所","",35.752041,138.448307,,http://yamanashikotsu.co.jp/jikoku/town/19.htm,0,,"Asia/Tokyo"
"P1058",,"大内","",35.755193,138.449600,,http://yamanashikotsu.co.jp/jikoku/town/150.htm,0,,"Asia/Tokyo"
"P1854",,"上手一本松","",35.759076,138.447207,,,0,,"Asia/Tokyo"
"P1060",,"辺見","",35.763978,138.443645,,http://yamanashikotsu.co.jp/jikoku/town/806.htm,0,,"Asia/Tokyo"
"P1873",,"谷井","",35.767129,138.441762,,,0,,"Asia/Tokyo"
"P1919",,"明野総合支所","",35.769941,138.440153,,http://yamanashikotsu.co.jp/jikoku/town/20.htm,0,,"Asia/Tokyo"
"P1063",,"浄居寺","",35.775704,138.439740,,http://yamanashikotsu.co.jp/jikoku/town/462.htm,0,,"Asia/Tokyo"
"P1064",,"浅尾新田下","",35.779335,138.437347,,http://yamanashikotsu.co.jp/jikoku/town/25.htm,0,,"Asia/Tokyo"
"P1065",,"浅尾新田中","",35.782989,138.438031,,http://yamanashikotsu.co.jp/jikoku/town/28.htm,0,,"Asia/Tokyo"
"P1066",,"浅尾新田","",35.785078,138.438697,,http://yamanashikotsu.co.jp/jikoku/town/24.htm,0,,"Asia/Tokyo"
"P1067",,"朝神駐在所","",35.787097,138.439879,,http://yamanashikotsu.co.jp/jikoku/town/27.htm,0,,"Asia/Tokyo"
"P1132",,"浅尾下","",35.792823,138.445888,,http://yamanashikotsu.co.jp/jikoku/town/23.htm,0,,"Asia/Tokyo"
"P1133",,"浅尾中","",35.793667,138.446515,,http://yamanashikotsu.co.jp/jikoku/town/26.htm,0,,"Asia/Tokyo"
"P1134",,"浅尾","",35.795334,138.447577,,http://yamanashikotsu.co.jp/jikoku/town/22.htm,0,,"Asia/Tokyo"
"P1051",,"鳥居","",35.733580,138.446625,,http://yamanashikotsu.co.jp/jikoku/town/633.htm,0,,"Asia/Tokyo"
"P1043",,"文化ホール入口","",35.726839,138.446982,,http://yamanashikotsu.co.jp/jikoku/town/805.htm,0,,"Asia/Tokyo"
"P1041",,"雇用促進住宅入口","",35.721890,138.447588,,http://yamanashikotsu.co.jp/jikoku/town/360.htm,0,,"Asia/Tokyo"
"P1038",,"韮崎東中","",35.717781,138.448865,,http://yamanashikotsu.co.jp/jikoku/town/714.htm,0,,"Asia/Tokyo"
"P1036",,"韮崎高校","",35.713488,138.448511,,http://yamanashikotsu.co.jp/jikoku/town/707.htm,0,,"Asia/Tokyo"
"P1138",,"小池平下","",35.802026,138.451896,,http://yamanashikotsu.co.jp/jikoku/town/290.htm,0,,"Asia/Tokyo"
"P1135",,"小池平上","",35.805358,138.452834,,http://yamanashikotsu.co.jp/jikoku/town/289.htm,0,,"Asia/Tokyo"
"P1136",,"仁田平","",35.807912,138.455265,,http://yamanashikotsu.co.jp/jikoku/town/699.htm,0,,"Asia/Tokyo"
"P2335",,"相垈","",35.720113,138.450415,,http://yamanashikotsu.co.jp/jikoku/town/4.htm,0,,"Asia/Tokyo"
"P1048",,"蔵の前","",35.726504,138.449187,,http://yamanashikotsu.co.jp/jikoku/town/268.htm,0,,"Asia/Tokyo"
"P1046",,"絵見堂","",35.728372,138.448833,,http://yamanashikotsu.co.jp/jikoku/town/122.htm,0,,"Asia/Tokyo"
"P1052",,"駒井","",35.736467,138.445193,,http://yamanashikotsu.co.jp/jikoku/town/350.htm,0,,"Asia/Tokyo"
"P1069",,"下木戸","",35.741930,138.442613,,http://yamanashikotsu.co.jp/jikoku/town/432.htm,0,,"Asia/Tokyo"
"P1070",,"中条下","",35.744226,138.441301,,http://yamanashikotsu.co.jp/jikoku/town/652.htm,0,,"Asia/Tokyo"
"P1071",,"中条上","",35.745400,138.440472,,http://yamanashikotsu.co.jp/jikoku/town/651.htm,0,,"Asia/Tokyo"
"P1073",,"ゆーぷる韮崎","",35.747879,138.438463,,http://yamanashikotsu.co.jp/jikoku/town/965.htm,0,,"Asia/Tokyo"
"P1076",,"三村橋入口","",35.753284,138.434469,,http://yamanashikotsu.co.jp/jikoku/town/385.htm,0,,"Asia/Tokyo"
"P1077",,"小田川上","",35.759701,138.431693,,http://yamanashikotsu.co.jp/jikoku/town/364.htm,0,,"Asia/Tokyo"
"P1078",,"金比羅神社","",35.761525,138.429977,,http://yamanashikotsu.co.jp/jikoku/town/364.htm,0,,"Asia/Tokyo"
"P2333",,"小田川新田","",35.763592,138.428378,,http://yamanashikotsu.co.jp/jikoku/town/344.htm,0,,"Asia/Tokyo"
"P1127",,"桐の木","",35.765101,138.427155,,http://yamanashikotsu.co.jp/jikoku/town/255.htm,0,,"Asia/Tokyo"
"P1082",,"大豆生田下","",35.772032,138.426138,,http://yamanashikotsu.co.jp/jikoku/town/850.htm,0,,"Asia/Tokyo"
"P1081",,"大豆生田上","",35.775070,138.425589,,http://yamanashikotsu.co.jp/jikoku/town/849.htm,0,,"Asia/Tokyo"
"P1088",,"北杜市役所","",35.776692,138.425731,,http://yamanashikotsu.co.jp/jikoku/town/499.htm,0,,"Asia/Tokyo"
"P1086",,"百観音","",35.779753,138.424848,,http://yamanashikotsu.co.jp/jikoku/town/771.htm,0,,"Asia/Tokyo"
"P1084",,"須玉町総合体育館","",35.780926,138.423118,,http://yamanashikotsu.co.jp/jikoku/town/500.htm,0,,"Asia/Tokyo"
"P1083",,"須玉橋","",35.784312,138.423212,,http://yamanashikotsu.co.jp/jikoku/town/502.htm,0,,"Asia/Tokyo"
"P1090",,"若神子下","",35.787913,138.421251,,http://yamanashikotsu.co.jp/jikoku/town/995.htm,0,,"Asia/Tokyo"
"P1091",,"JA須玉支所","",35.789003,138.421619,,http://yamanashikotsu.co.jp/jikoku/town/1003.htm,0,,"Asia/Tokyo"
"P1092",,"若神子中","",35.790578,138.422174,,http://yamanashikotsu.co.jp/jikoku/town/1002.htm,0,,"Asia/Tokyo"
"P1094",,"若神子古城入口","",35.792651,138.422973,,http://yamanashikotsu.co.jp/jikoku/town/1001.htm,0,,"Asia/Tokyo"
"P1095",,"若神子上","",35.793502,138.424175,,http://yamanashikotsu.co.jp/jikoku/town/1000.htm,0,,"Asia/Tokyo"
"P2334",,"新橋","",35.792699,138.426790,,http://yamanashikotsu.co.jp/jikoku/town/492.htm,0,,"Asia/Tokyo"
"P1032",,"下小倉","",35.794137,138.430985,,http://yamanashikotsu.co.jp/jikoku/town/428.htm,0,,"Asia/Tokyo"
"P1008",,"須玉中学校","",35.796496,138.433834,,http://yamanashikotsu.co.jp/jikoku/town/501.htm,0,,"Asia/Tokyo"
"P1009",,"中尾","",35.801377,138.436637,,http://yamanashikotsu.co.jp/jikoku/town/637.htm,0,,"Asia/Tokyo"
"P1010",,"東向下","",35.809126,138.445118,,http://yamanashikotsu.co.jp/jikoku/town/759.htm,0,,"Asia/Tokyo"
"P1011",,"多麻郵便局","",35.810855,138.448143,,http://yamanashikotsu.co.jp/jikoku/town/556.htm,0,,"Asia/Tokyo"
"P1012",,"東向上","",35.812239,138.451263,,http://yamanashikotsu.co.jp/jikoku/town/758.htm,0,,"Asia/Tokyo"
"P1013",,"孫女","",35.817074,138.457671,,http://yamanashikotsu.co.jp/jikoku/town/839.htm,0,,"Asia/Tokyo"
"P1014",,"平","",35.823398,138.464470,,http://yamanashikotsu.co.jp/jikoku/town/529.htm,0,,"Asia/Tokyo"
"P1015",,"五十田","",35.829292,138.468810,,http://yamanashikotsu.co.jp/jikoku/town/345.htm,0,,"Asia/Tokyo"
"P1016",,"八巻下","",35.831044,138.470966,,http://yamanashikotsu.co.jp/jikoku/town/940.htm,0,,"Asia/Tokyo"
"P1017",,"八巻上","",35.833967,138.474332,,http://yamanashikotsu.co.jp/jikoku/town/939.htm,0,,"Asia/Tokyo"
"P1018",,"大渡","",35.839366,138.481969,,http://yamanashikotsu.co.jp/jikoku/town/157.htm,0,,"Asia/Tokyo"
"P1019",,"比志下","",35.844830,138.488773,,http://yamanashikotsu.co.jp/jikoku/town/765.htm,0,,"Asia/Tokyo"
"P1020",,"比志上","",35.847891,138.493081,,http://yamanashikotsu.co.jp/jikoku/town/763.htm,0,,"Asia/Tokyo"
"P1021",,"比志三軒屋","",35.851281,138.500146,,http://yamanashikotsu.co.jp/jikoku/town/764.htm,0,,"Asia/Tokyo"
"P1022",,"塩川下","",35.853796,138.502552,,http://yamanashikotsu.co.jp/jikoku/town/391.htm,0,,"Asia/Tokyo"
"P1023",,"塩川","",35.855835,138.501425,,http://yamanashikotsu.co.jp/jikoku/town/390.htm,0,,"Asia/Tokyo"
"P1024",,"塩川トンネル","",35.856066,138.505057,,http://yamanashikotsu.co.jp/jikoku/town/392.htm,0,,"Asia/Tokyo"
"P1025",,"通仙峡","",35.858294,138.511784,,http://yamanashikotsu.co.jp/jikoku/town/585.htm,0,,"Asia/Tokyo"
"P1026",,"日向","",35.857777,138.519753,,http://yamanashikotsu.co.jp/jikoku/town/767.htm,0,,"Asia/Tokyo"
"P1027",,"日影","",35.863078,138.524138,,http://yamanashikotsu.co.jp/jikoku/town/751.htm,0,,"Asia/Tokyo"
"P1028",,"日影入口","",35.864322,138.525091,,http://yamanashikotsu.co.jp/jikoku/town/753.htm,0,,"Asia/Tokyo"
"P1029",,"増富佼成寮","",35.865083,138.526456,,http://yamanashikotsu.co.jp/jikoku/town/302.htm,0,,"Asia/Tokyo"
"P1030",,"東小尾","",35.865506,138.531160,,http://yamanashikotsu.co.jp/jikoku/town/754.htm,0,,"Asia/Tokyo"
"P1031",,"増富温泉郷","",35.865487,138.535033,,http://yamanashikotsu.co.jp/jikoku/town/841.htm,0,,"Asia/Tokyo"
"P1007",,"須玉中学校","",35.797679,138.434400,,http://yamanashikotsu.co.jp/jikoku/town/501.htm,0,,"Asia/Tokyo"
"P1093",,"若神子中","",35.790807,138.422295,,http://yamanashikotsu.co.jp/jikoku/town/1002.htm,0,,"Asia/Tokyo"
"P1085",,"須玉町総合体育館","",35.780643,138.423258,,http://yamanashikotsu.co.jp/jikoku/town/500.htm,0,,"Asia/Tokyo"
"P1087",,"百観音","",35.779542,138.425835,,http://yamanashikotsu.co.jp/jikoku/town/771.htm,0,,"Asia/Tokyo"
"P1079",,"桐の木","",35.765253,138.427209,,http://yamanashikotsu.co.jp/jikoku/town/255.htm,0,,"Asia/Tokyo"
"P1129",,"小田川上","",35.759814,138.431683,,http://yamanashikotsu.co.jp/jikoku/town/364.htm,0,,"Asia/Tokyo"
"P1075",,"三村橋入口","",35.753034,138.434494,,http://yamanashikotsu.co.jp/jikoku/town/385.htm,0,,"Asia/Tokyo"
"P1074",,"ゆーぷる韮崎","",35.748143,138.438321,,http://yamanashikotsu.co.jp/jikoku/town/965.htm,0,,"Asia/Tokyo"
"P1072",,"中条上","",35.745548,138.440427,,http://yamanashikotsu.co.jp/jikoku/town/651.htm,0,,"Asia/Tokyo"
"P1053",,"駒井","",35.735481,138.445748,,http://yamanashikotsu.co.jp/jikoku/town/350.htm,0,,"Asia/Tokyo"
"P1047",,"絵見堂","",35.729997,138.448226,,http://yamanashikotsu.co.jp/jikoku/town/122.htm,0,,"Asia/Tokyo"
"P1049",,"蔵の前","",35.725219,138.449498,,http://yamanashikotsu.co.jp/jikoku/town/268.htm,0,,"Asia/Tokyo"
"P2258",,"上九一色出張所（甲府市）","",35.530563,138.610047,,,0,,"Asia/Tokyo"
"P2257",,"梯（甲府市）","",35.534282,138.600525,,,0,,"Asia/Tokyo"
"P2256",,"右左口（甲府市）","",35.570788,138.589142,,,0,,"Asia/Tokyo"
"P2255",,"右左口交差点（甲府市）","",35.574283,138.590040,,,0,,"Asia/Tokyo"
"P2254",,"七覚入口（甲府市）","",35.573433,138.584936,,,0,,"Asia/Tokyo"
"P2253",,"中道南小学校（甲府市）","",35.576836,138.582965,,,0,,"Asia/Tokyo"
"P2252",,"金沢（甲府市）","",35.581783,138.579767,,,0,,"Asia/Tokyo"
"P2251",,"旧中道支所（甲府市）","",35.589614,138.577831,,,0,,"Asia/Tokyo"
"P4904",,"北野医院（甲府市）","",35.593045,138.577620,,,0,,"Asia/Tokyo"
"P4903",,"下曽根（甲府市）","",35.593775,138.574135,,,0,,"Asia/Tokyo"
"P2259",,"古関町（甲府市）","",35.528070,138.624222,,,0,,"Asia/Tokyo"
"P2249",,"高速バス停（甲府市）","",35.594884,138.579735,,,0,,"Asia/Tokyo"
"P4902",,"中道交流センター（甲府市）","",35.595124,138.586356,,,0,,"Asia/Tokyo"
"P4901",,"宮下（甲府市）","",35.599791,138.590870,,,0,,"Asia/Tokyo"
"P2266",,"中道北児童館（甲府市）","",35.605734,138.591274,,,0,,"Asia/Tokyo"
"P4900",,"甲府リサイクルプラザ（甲府市）","",35.626405,138.596271,,,0,,"Asia/Tokyo"
"P4899",,"甲府城南病院（甲府市）","",35.629019,138.595342,,,0,,"Asia/Tokyo"
"P928",,"市立甲府病院（甲府市）","",35.634294,138.591827,,,0,,"Asia/Tokyo"
"P4895",,"南甲府駅（甲府市）","",35.643853,138.577133,,,0,,"Asia/Tokyo"
"P4896",,"ザ・ビッグ（甲府市）","",35.641018,138.585287,,,0,,"Asia/Tokyo"
"P4898",,"いちやまマート増坪店（甲府市）","",35.638764,138.591086,,,0,,"Asia/Tokyo"
"P4897",,"ザ・ビッグ（甲府市）","",35.641069,138.585196,,,0,,"Asia/Tokyo"
